country,city,latitude,longitude,hemisphere,temp,humidity,clouds,wind,temp_max
US,hobart,41.5322222,-87.255,northern,40.01,74.0,1.0,6.93,42.01
RO,traian,43.766667,25.0,northern,61.14,59.0,75.0,18.34,62.6
US,cedar lake,41.3647222,-87.44111109999999,northern,41.4,74.0,0.0,8.99,42.01
IT,treia,43.316666999999995,13.316667,northern,62.04,76.0,0.0,3.0,64.99
US,hopkinton,42.2286111,-71.52305559999999,northern,33.87,79.0,0.0,1.01,37.0
CN,lingyuan,41.24,119.40111100000001,northern,41.43,49.0,0.0,5.75,41.43
GE,lagodekhi,41.8227778,46.275555600000004,northern,62.6,77.0,75.0,1.63,62.6
RO,rogova,44.471667,22.806667,northern,57.38,73.0,100.0,18.88,57.38
IT,fermo,43.15,13.716667000000001,northern,63.07,76.0,0.0,3.0,64.99
RO,alexandria,43.983333,25.333333,northern,60.01,69.0,100.0,7.0,60.01
GE,kulashi,42.2041667,42.3566667,northern,66.2,63.0,75.0,8.05,66.2
US,fort atkinson,42.9288889,-88.83694440000001,northern,38.66,53.0,0.0,1.01,39.0
BG,buhovo,42.7666667,23.5666667,northern,57.2,58.0,90.0,9.17,57.2
RU,psedakh,43.467222,44.569167,northern,62.31,63.0,87.0,11.18,62.6
RO,mosteni,43.866667,25.133333,northern,60.44,59.0,75.0,18.34,62.6
IT,ancona,43.633333,13.5,northern,61.92,93.0,0.0,4.7,62.6
US,saint john,41.45,-87.47,northern,41.72,65.0,1.0,12.75,43.0
GR,kiprinos,41.5755556,26.230555600000002,northern,58.86,76.0,53.0,1.01,64.0
RO,sarulesti,44.416667,26.65,northern,47.73,100.0,20.0,6.93,50.0
BG,novi iskar,42.8,23.35,northern,57.2,58.0,90.0,9.17,57.2
US,rexburg,43.826111100000006,-111.7888889,northern,33.82,64.0,1.0,6.93,35.6
US,old saybrook,41.2916667,-72.3766667,northern,37.81,64.0,1.0,8.05,41.0
RO,gangiova,43.9,23.85,northern,59.68,72.0,75.0,17.22,61.0
ES,sada,43.356187,-8.257964,northern,68.25,82.0,75.0,17.22,70.0
GE,kvareli,41.9513889,45.8016667,northern,69.39,31.0,79.0,4.5,69.39
RO,lita,43.8,24.816667000000002,northern,61.25,59.0,75.0,18.34,62.6
RU,levokumka,44.231667,43.15,northern,57.09,71.0,75.0,4.47,57.2
GR,petinos,41.1,24.9,northern,63.79,48.0,20.0,11.41,64.4
CA,nanticoke,42.8,-80.06666700000001,northern,34.41,68.0,79.0,2.24,37.0
CA,shelburne,44.066666999999995,-80.2,northern,32.74,86.0,0.0,9.19,35.01
IT,piombino,42.916667,10.533333,northern,66.2,72.0,58.0,3.0,66.99
US,medway,42.1416667,-71.3972222,northern,33.75,96.0,0.0,2.35,36.0
US,novi,42.4805556,-83.47555559999999,northern,38.64,74.0,0.0,10.94,41.0
RU,kantyshevo,43.214463,44.677116,northern,62.31,63.0,90.0,11.18,62.6
US,natick,42.283333299999995,-71.35,northern,32.34,98.0,0.0,1.01,33.01
RO,corbu,44.483333,24.716667,northern,59.0,72.0,75.0,17.22,59.0
US,des moines,41.60055560000001,-93.60888890000001,northern,49.55,66.0,1.0,13.87,51.01
GR,kilkis,40.991944399999994,22.8708333,northern,68.31,45.0,0.0,11.99,71.01
BA,lukavac,44.5419444,18.525833300000002,northern,64.4,52.0,20.0,2.24,64.4
BG,pernik,42.6,23.033333300000002,northern,57.2,58.0,90.0,9.17,57.2
US,south berwick,43.234444399999994,-70.81,northern,34.25,58.0,1.0,8.05,37.0
US,jay,44.5038889,-70.2166667,northern,36.28,48.0,0.0,1.01,39.0
CA,wyoming,42.95,-82.116667,northern,35.76,69.0,75.0,6.93,37.99
IT,teano,41.25,14.066667,northern,69.26,68.0,20.0,3.87,71.01
RO,adunatii-copaceni,44.253333000000005,26.0475,northern,48.67,94.0,88.0,9.8,50.0
RU,zavodskoy,42.983502,44.687646,northern,62.29,63.0,68.0,11.18,62.6
RS,ljubovija,44.189444,19.376667,northern,57.99,71.0,40.0,8.05,64.4
ES,tarrega,41.648983,1.1396,northern,72.05,35.0,0.0,8.01,75.99
US,prospect,41.5022222,-72.97916670000001,northern,34.77,74.0,1.0,4.7,37.0
ES,laviana,43.245385,-5.562896,northern,63.32,74.0,71.0,1.99,75.0
KZ,achisay,43.554167,68.888889,northern,41.68,59.0,0.0,14.63,41.68
BA,banovici,44.404166700000005,18.4475,northern,64.4,52.0,20.0,2.24,64.4
US,dover,43.1977778,-70.8741667,northern,34.18,58.0,1.0,8.05,37.0
BG,iskar,43.3833333,27.483333299999998,northern,50.92,93.0,90.0,4.7,51.8
RU,kakhun,43.543056,43.876389,northern,59.0,67.0,75.0,4.47,59.0
US,waldoboro,44.0952778,-69.37611109999999,northern,35.53,59.0,1.0,8.05,36.0
ES,ondarroa,43.325088,-2.423304,northern,74.79,44.0,0.0,6.93,78.8
US,auburn,41.366944399999994,-85.05888890000001,northern,38.17,69.0,1.0,6.93,39.99
BG,kameno,42.5666667,27.3,northern,57.11,71.0,90.0,6.93,57.2
BG,belica,41.9569444,23.5725,northern,55.0,73.0,91.0,3.0,55.0
IT,molfetta,41.2,16.6,northern,65.34,72.0,0.0,5.82,66.99
RU,sovetskoye,42.444233000000004,46.551722,northern,62.65,35.0,84.0,7.45,62.65
IT,cingoli,43.366667,13.216667000000001,northern,61.63,83.0,0.0,3.67,64.99
RU,dzheguta,43.967095,42.042615999999995,northern,54.43,57.0,1.0,2.17,54.43
RS,vucje,42.865278,21.911389,northern,57.92,87.0,75.0,9.17,60.01
IT,cori,41.65,12.916667,northern,67.14,72.0,0.0,7.0,69.01
CN,huadian,42.963333,126.747778,northern,46.78,84.0,98.0,10.42,46.78
KZ,oytal,42.907222,73.273611,northern,48.43,43.0,0.0,3.15,48.43
ES,foz,43.569196999999996,-7.254405,northern,67.23,83.0,100.0,17.0,70.0
US,sterling heights,42.5802778,-83.0302778,northern,38.64,60.0,40.0,4.7,42.01
RO,lipnita,44.1,27.6,northern,49.66,87.0,75.0,6.93,51.01
BG,tran,42.8352778,22.6516667,northern,57.2,58.0,90.0,9.17,57.2
RO,contesti,43.8,25.483333,northern,60.01,69.0,100.0,7.0,60.01
RU,ilaskhan-yurt,43.279098,46.102287,northern,59.0,77.0,0.0,4.47,59.0
US,ashtabula,41.865,-80.79,northern,42.37,69.0,40.0,5.82,44.01
ES,el astillero,43.400942,-3.820511,northern,72.36,64.0,0.0,2.24,75.0
US,kingston,41.9944444,-70.725,northern,37.94,80.0,1.0,3.36,41.0
UZ,gazalkent,41.5580556,69.77083329999999,northern,51.8,27.0,0.0,4.76,51.8
CN,changchun,43.88,125.322778,northern,42.8,52.0,0.0,11.18,42.8
BG,bansko,41.8394444,23.5,northern,55.0,73.0,67.0,3.0,55.0
US,pocatello,42.8713889,-112.4447222,northern,39.4,64.0,1.0,13.87,42.01
BG,senovo,43.65,26.366666700000003,northern,50.72,89.0,100.0,5.7,50.72
RO,cernica,44.416667,26.283333000000002,northern,47.77,100.0,20.0,6.93,50.0
RO,modelu,44.2,27.383333,northern,49.93,87.0,75.0,6.93,51.01
MK,vrapciste,41.8338889,20.8852778,northern,64.4,55.0,75.0,2.24,64.4
US,ashland,42.2611111,-71.46388890000001,northern,33.33,80.0,0.0,1.01,37.99
US,canton,42.158333299999995,-71.14527779999999,northern,32.49,92.0,1.0,3.36,37.0
BG,zlatograd,41.3833333,25.1,northern,64.27,48.0,20.0,11.41,64.4
US,river grove,41.9258333,-87.8358333,northern,41.43,69.0,1.0,9.17,44.01
ES,villaviciosa,43.480936,-5.435249,northern,75.0,52.0,77.0,3.0,75.0
RU,dachnoye,42.960668,44.659440999999994,northern,62.29,63.0,69.0,11.18,62.6
CN,mujiayingzi,42.116667,118.78333300000001,northern,38.48,56.0,0.0,9.46,38.48
US,mashpee,41.6483333,-70.4816667,northern,42.55,74.0,1.0,8.05,46.99
CA,owen sound,44.566666999999995,-80.85,northern,36.9,70.0,30.0,5.01,37.99
CN,huangnihe,43.558333000000005,128.023889,northern,42.57,87.0,35.0,8.37,42.57
KZ,karatau,43.166667,70.466667,northern,40.39,62.0,89.0,1.59,40.39
BG,balgarovo,42.6166667,27.3,northern,57.09,71.0,90.0,6.93,57.2
CN,fushun,41.7,123.88333300000001,northern,53.6,81.0,75.0,6.71,53.6
GR,kato kamila,41.0166667,23.4833333,northern,67.46,34.0,1.0,3.0,69.01
BG,kozloduj,43.783333299999995,23.7333333,northern,59.7,72.0,75.0,17.22,61.0
MX,san agustin,20.533333,-103.466667,northern,61.38,76.0,5.0,3.2,66.0
MX,jerecuaro,20.15,-100.516667,northern,55.22,76.0,90.0,1.63,64.99
IN,bilimora,20.75,72.95,northern,80.6,69.0,3.0,5.82,80.6
MX,panindicuaro,19.966667,-101.766667,northern,60.8,87.0,75.0,2.64,60.8
MX,el coyote,25.7,-103.266667,northern,55.4,47.0,5.0,5.37,55.4
PH,dicabisagan,17.081839000000002,122.41574299999999,northern,76.86,82.0,100.0,16.78,76.86
MX,chichicapam,16.75,-96.483333,northern,53.6,93.0,5.0,1.12,53.6
MX,san lorenzo cuauhtenco,19.195833,-99.633889,northern,50.0,81.0,5.0,3.36,50.0
MX,mazatlan,17.45,-99.483333,northern,67.51,71.0,0.0,5.35,67.51
CN,xiongzhou,25.116667,114.3,northern,65.48,76.0,0.0,1.68,65.48
ML,kidal,18.4411111,1.4077778,northern,93.52,11.0,10.0,17.45,93.52
CN,haicheng,22.975326000000003,115.33179399999999,northern,72.0,73.0,0.0,1.99,72.0
MX,altamira,22.4,-97.916667,northern,67.48,63.0,5.0,8.05,69.01
US,toa alta,18.390277800000003,-66.2486111,northern,86.0,66.0,75.0,17.22,86.0
MX,eldorado,24.320278,-107.36027800000001,northern,71.47,72.0,75.0,4.85,73.0
US,waipahu,21.3866667,-158.00916669999998,northern,69.17,100.0,1.0,3.36,71.6
IN,ichhawar,23.016667,77.016667,northern,69.8,60.0,0.0,3.36,69.8
IN,patratu,23.666667,85.283333,northern,75.2,69.0,1.0,3.83,75.2
IN,puruliya,23.333333,86.366667,northern,76.35,62.0,75.0,4.12,76.35
TW,houlung,24.6141667,120.78777779999999,northern,70.5,82.0,40.0,3.36,73.0
IN,shahdol,23.283333,81.35,northern,67.68,44.0,0.0,2.01,67.68
TW,suao,24.6,121.83333329999999,northern,69.01,99.0,93.0,4.45,69.01
CU,palmira,22.2416667,-80.39027779999999,northern,82.4,83.0,3.0,6.93,82.4
MX,las vigas,19.633333,-97.083333,northern,51.35,84.0,69.0,1.95,51.35
GT,flores,16.933332999999998,-89.883333,northern,74.46,94.0,83.0,3.85,74.46
MX,tangamandapio,19.95,-102.43333299999999,northern,63.27,67.0,0.0,2.98,63.27
MX,altamirano,16.736110999999998,-92.038889,northern,63.18,94.0,99.0,1.79,63.18
IN,rawatbhata,24.933332999999998,75.583333,northern,72.7,20.0,0.0,1.59,72.7
MX,fresnillo,23.166667,-102.883333,northern,46.4,61.0,5.0,4.23,46.4
GT,san francisco,16.8,-89.93333299999999,northern,72.68,97.0,92.0,3.74,72.68
DO,san ignacio de sabaneta,19.466666699999998,-71.33333329999999,northern,82.99,78.0,100.0,8.99,82.99
MX,tierra colorada,17.166667,-99.583333,northern,78.8,83.0,40.0,3.04,78.8
IN,karimnagar,18.433332999999998,79.15,northern,72.99,67.0,0.0,5.21,72.99
PH,bacnor,16.983333,121.63333300000001,northern,71.35,84.0,100.0,8.72,71.35
US,hialeah,25.8572222,-80.2783333,northern,81.07,94.0,1.0,3.36,84.99
CN,xiaolan,22.673810999999997,113.231874,northern,72.97,85.0,0.0,1.01,73.99
TW,sanhsia,24.9333333,121.36666670000001,northern,72.59,64.0,75.0,16.11,75.2
MX,benito juarez,19.233333,-100.466667,northern,64.99,71.0,0.0,1.01,64.99
IN,gandevi,20.816667000000002,72.983333,northern,80.6,69.0,3.0,5.82,80.6
US,canovanas,18.381111100000002,-65.9016667,northern,85.32,70.0,40.0,14.99,86.0
IN,jiran,24.316667000000002,74.883333,northern,70.07,23.0,0.0,5.64,70.07
PH,mabusag,17.9261,120.4976,northern,73.69,74.0,100.0,10.42,73.69
TH,sawankhalok,17.315972,99.831861,northern,75.96,88.0,29.0,2.71,75.96
IN,jugsalai,22.766667,86.18333299999999,northern,78.44,59.0,84.0,3.49,78.44
IN,kagaznagar,19.333333,79.483333,northern,72.37,58.0,0.0,5.59,72.37
IN,kharar,22.7,87.68333299999999,northern,79.09,64.0,80.0,5.14,79.09
MX,ahualulco,22.4,-101.166667,northern,42.8,75.0,5.0,2.01,42.8
MX,tancitaro,19.333333,-102.366667,northern,60.8,87.0,75.0,0.72,60.8
IN,sundargarh,22.116667,84.033333,northern,75.27,54.0,0.0,3.33,75.27
MX,huehuetoca,19.848889,-99.204167,northern,51.48,71.0,5.0,6.93,51.8
TH,mae ramat,16.984032,98.516646,northern,73.81,91.0,81.0,2.1,73.81
CN,qingyuan,23.7,113.03333300000001,northern,74.95,73.0,8.0,3.69,77.0
US,marathon,24.713333300000002,-81.0905556,northern,83.73,74.0,1.0,6.93,84.2
MX,tezontepec,19.883333,-98.81666700000001,northern,51.8,71.0,5.0,6.93,51.8
MX,las juntas,19.416667,-104.7,northern,77.0,73.0,20.0,6.93,77.0
US,pinecrest,25.6666667,-80.3083333,northern,83.48,78.0,75.0,8.05,84.99
TH,kumphawapi,17.108751,103.014874,northern,79.0,83.0,60.0,4.59,79.0
IN,petlawad,23.0,74.8,northern,74.62,29.0,0.0,5.46,74.62
IN,jetpur,21.733333,70.616667,northern,80.6,44.0,0.0,4.7,80.6
MX,rio grande,23.716667,-102.966667,northern,58.62,44.0,0.0,5.82,58.62
PH,hapao,16.879661,121.016042,northern,63.75,85.0,100.0,2.26,63.75
SN,richard toll,16.466666699999998,-15.683333300000001,northern,102.6,8.0,67.0,13.51,102.6
IN,igatpuri,19.7,73.55,northern,73.13,62.0,29.0,2.68,73.13
PH,mabini,17.096943,121.73724299999999,northern,70.74,90.0,100.0,9.73,70.74
MX,el sauz,20.466667,-100.1,northern,46.4,81.0,20.0,4.7,46.4
CU,manicaragua,22.1494444,-79.97361109999999,northern,81.5,83.0,20.0,8.05,82.4
IN,ghatal,22.666667,87.716667,northern,79.0,65.0,87.0,5.08,79.0
IN,mundra,22.85,69.733333,northern,83.66,39.0,0.0,10.65,83.66
IN,narsingi,18.033333,78.43333299999999,northern,74.93,73.0,40.0,2.24,77.0
PH,balaoan,16.8219,120.4045,northern,78.39,71.0,100.0,3.24,78.39
MX,tancuayalab,21.733333,-98.56666700000001,northern,65.79,71.0,0.0,3.8,65.79
MX,valle de juarez,19.933332999999998,-102.93333299999999,northern,61.99,73.0,0.0,3.98,61.99
MX,acambay,19.955833,-99.841667,northern,57.06,58.0,0.0,3.67,57.06
MX,kantunil,20.8,-89.033333,northern,78.89,88.0,90.0,4.14,79.0
MX,tetela del volcan,18.866667,-98.716667,northern,60.13,71.0,5.0,8.05,68.0
IN,bhubaneswar,20.233333,85.833333,northern,80.6,83.0,20.0,1.12,80.6
IN,baghmara,22.253611,88.87055600000001,northern,80.6,94.0,40.0,5.5,80.6
IN,dubrajpur,23.8,87.383333,northern,77.94,61.0,0.0,4.47,77.94
MX,tetepango,20.1,-99.166667,northern,56.62,59.0,9.0,0.27,56.62
PH,mabuttal,18.3762,121.5147,northern,75.38,79.0,98.0,12.88,75.38
MX,tlaltelulco,19.275,-98.193056,northern,53.6,71.0,5.0,8.05,53.6
MX,ixtapa,16.8,-92.916667,northern,68.0,88.0,75.0,2.64,68.0
IN,barghat,22.033333,79.716667,northern,67.82,49.0,0.0,6.04,67.82
IN,kotar,24.716667,80.983333,northern,74.41,26.0,68.0,3.24,74.41
IN,pathri,19.25,76.45,northern,73.87,61.0,0.0,7.45,73.87
MX,el limon,19.816667000000002,-104.18333299999999,northern,70.72,77.0,0.0,1.32,70.72
US,sabana grande,18.0797222,-66.9608333,northern,86.85,65.0,87.0,7.0,89.01
IN,jaora,23.633333,75.133333,northern,71.65,22.0,0.0,6.15,71.65
MX,miahuatlan,18.283333,-97.283333,northern,64.99,64.0,9.0,1.99,64.99
IN,matheran,18.983333,73.266667,northern,86.0,58.0,0.0,5.82,86.0
BD,nabinagar,23.8916667,90.9733333,northern,78.8,88.0,75.0,3.51,78.8
IN,songadh,21.166667,73.56666700000001,northern,77.49,42.0,24.0,6.04,77.49
JM,port antonio,18.1833333,-76.4666667,northern,83.07,79.0,40.0,6.93,84.2
MX,contepec,20.016667,-100.116667,northern,57.78,81.0,20.0,4.7,64.99
US,miami lakes,25.908333300000002,-80.30888890000001,northern,80.47,94.0,1.0,3.36,82.99
MX,lagunillas,21.033333,-104.533333,northern,68.0,77.0,0.0,2.95,68.0
MX,el colomo,19.05,-104.25,northern,77.0,73.0,20.0,6.93,77.0
PH,banaue,16.913559,121.061842,northern,59.72,94.0,100.0,2.3,59.72
IN,kannad,20.266667,75.133333,northern,78.8,57.0,75.0,5.1,78.8
MX,guichicovi,16.966667,-95.1,northern,70.84,68.0,48.0,10.98,70.84
JO,busayra,30.737603999999997,35.607746999999996,northern,64.78,50.0,0.0,7.47,64.78
MT,santa venera,35.890833,14.474167000000001,northern,70.38,64.0,20.0,5.82,71.6
IN,gulaothi,28.6,77.783333,northern,73.4,40.0,0.0,4.7,73.4
MT,gzira,35.905833,14.488056,northern,70.95,64.0,20.0,5.82,71.6
IN,kotdwara,29.75,78.533333,northern,64.4,88.0,20.0,3.36,64.4
IN,chuari khas,32.433333000000005,76.016667,northern,61.81,38.0,0.0,7.29,61.81
JP,isawa,35.65,138.633333,northern,44.01,85.0,0.0,1.99,44.01
IN,rampur,28.816667,79.033333,northern,72.79,37.0,0.0,3.24,72.79
US,wylie,33.015,-96.5386111,northern,52.92,76.0,1.0,8.05,55.0
SY,salamiyah,35.0166667,37.05,northern,75.69,35.0,100.0,3.49,75.69
NP,banepa,27.633333299999997,85.5166667,northern,64.4,77.0,20.0,2.24,64.4
PK,bhawana,31.56918,72.648992,northern,70.83,20.0,0.0,5.46,70.83
IN,ramnagar,32.816666999999995,75.31666700000001,northern,69.8,52.0,20.0,1.12,69.8
PK,charsadda,34.143453,71.73173100000001,northern,69.8,35.0,5.0,4.7,69.8
IN,nahan,30.55,77.3,northern,75.2,27.0,5.0,5.82,75.2
US,lake worth,26.615555600000004,-80.05722220000001,northern,82.56,74.0,1.0,11.41,84.2
PT,santa cruz,32.683333000000005,-16.8,northern,74.03,73.0,20.0,12.75,75.0
US,woodway,31.5058333,-97.2047222,northern,50.85,87.0,52.0,6.8,54.0
IN,taranagar,28.6709,75.0351,northern,73.58,18.0,0.0,5.77,73.58
US,canyon,34.980277799999996,-101.9183333,northern,48.2,70.0,1.0,10.29,48.2
IR,bam,29.105999999999998,58.357,northern,58.41,29.0,0.0,3.56,58.41
US,germantown,35.0866667,-89.81,northern,49.96,87.0,20.0,3.36,53.01
PK,kandiaro,27.060114000000002,68.209088,northern,73.13,20.0,0.0,2.82,73.13
US,bennettsville,34.6172222,-79.685,northern,56.48,66.0,75.0,10.29,57.0
US,poway,32.9627778,-117.035,northern,48.52,76.0,1.0,0.92,55.4
IN,sunam,30.133333,75.8,northern,69.28,18.0,0.0,6.35,69.28
GR,stalis,35.3,25.4333333,northern,66.16,68.0,40.0,10.29,69.8
PK,bhalwal,32.270078999999996,72.876494,northern,69.44,21.0,0.0,5.37,69.44
US,yucaipa,34.0336111,-117.04222220000001,northern,53.17,34.0,5.0,5.1,54.0
JP,nogata,33.733333,130.73333300000002,northern,55.65,71.0,56.0,3.36,57.2
US,highland village,33.091666700000005,-97.04638890000001,northern,52.95,69.0,56.0,10.27,55.0
IN,ghanaur,30.332221999999998,76.607222,northern,75.2,27.0,5.0,5.82,75.2
US,san marcos,33.1433333,-117.1652778,northern,54.82,62.0,1.0,1.14,66.99
US,rancho cucamonga,34.1063889,-117.59222220000001,northern,58.19,54.0,20.0,4.16,66.2
IN,sarauli,28.5,79.1,northern,74.53,31.0,0.0,3.98,74.53
IR,borazjan,29.2666,51.2159,northern,84.2,39.0,0.0,9.17,84.2
US,norco,33.9311111,-117.54777779999999,northern,52.21,87.0,1.0,2.51,64.99
JP,yokaichi,35.1,136.2,northern,47.03,76.0,22.0,4.85,50.0
US,winston,28.031388899999996,-82.015,northern,75.49,65.0,90.0,8.05,78.01
US,raymondville,26.481111100000003,-97.78277779999999,northern,56.93,76.0,1.0,5.08,63.0
AF,geresk,31.820894,64.570048,northern,56.97,28.0,0.0,7.96,56.97
IN,narauli,28.5,78.716667,northern,74.35,30.0,0.0,4.14,74.35
JP,itsukaichi,35.725278,139.217778,northern,48.2,76.0,1.0,4.7,48.2
US,bay saint louis,30.308611100000004,-89.33,northern,53.46,87.0,1.0,46.08,57.99
LY,nalut,31.8683333,10.982777800000001,northern,68.0,43.0,0.0,8.97,68.0
IN,deshnok,27.8,73.35,northern,75.9,18.0,0.0,6.71,75.9
US,dunn,35.3061111,-78.6091667,northern,54.55,62.0,1.0,6.93,55.4
US,sugar land,29.619444399999995,-95.63472220000001,northern,58.91,93.0,1.0,3.69,61.0
US,henderson,32.1530556,-94.7991667,northern,46.8,93.0,1.0,4.7,48.2
US,san jacinto,33.783888899999994,-116.95777779999999,northern,47.46,28.0,1.0,4.14,51.01
JP,tanushimaru,33.35,130.683333,northern,54.95,71.0,44.0,3.36,57.2
US,robinson,31.4675,-97.1144444,northern,50.32,87.0,5.0,4.7,54.0
IN,gagret,31.666666999999997,76.06666700000001,northern,67.06,26.0,0.0,2.91,67.06
CN,hutang,31.533333000000002,119.483333,northern,57.0,85.0,20.0,3.0,57.0
JP,satte,36.066666999999995,139.716667,northern,57.7,56.0,4.0,0.98,61.0
US,rockwall,32.9311111,-96.4594444,northern,52.72,76.0,1.0,8.05,55.0
CN,jiaozuo,35.239722,113.233056,northern,59.56,30.0,1.0,7.61,59.56
US,san bernardino,34.1083333,-117.2888889,northern,52.72,34.0,5.0,4.32,54.0
BH,sitrah,26.1547222,50.6205556,northern,82.4,74.0,5.0,6.93,82.4
US,spring hill,28.555555600000005,-82.4505556,northern,74.44,73.0,1.0,6.93,78.01
US,indio,33.720555600000004,-116.21472220000001,northern,58.06,57.0,1.0,2.55,64.99
CN,beidao,34.568611,105.89333300000001,northern,47.75,52.0,0.0,2.33,47.75
US,hartselle,34.4433333,-86.9352778,northern,53.69,62.0,1.0,8.05,57.99
EG,alexandria,31.198055600000004,29.9191667,northern,78.12,54.0,40.0,13.87,78.8
US,weatherford,35.5261111,-98.7072222,northern,49.44,57.0,1.0,12.75,53.01
PK,alipur,29.384645000000003,70.91157199999999,northern,72.95,19.0,0.0,1.77,72.95
PK,kamir,30.433333,73.05,northern,71.65,20.0,0.0,6.6,71.65
PK,lahore,31.549721999999996,74.343611,northern,71.6,46.0,0.0,4.79,71.6
IN,narwana,29.616667,76.116667,northern,70.81,19.0,0.0,5.61,70.81
US,winter springs,28.698611100000004,-81.3083333,northern,76.78,73.0,1.0,3.36,79.0
US,de land,29.028055600000005,-81.30333329999999,northern,77.92,69.0,40.0,5.82,80.01
IN,shikarpur,28.283333000000002,78.016667,northern,73.38,23.0,0.0,2.51,73.38
US,bonita springs,26.339444399999994,-81.77888890000001,northern,82.06,79.0,53.0,3.0,82.99
IN,pulwama,33.883333,74.916667,northern,52.11,41.0,1.0,1.7,52.11
US,allen,33.103055600000005,-96.6702778,northern,52.63,84.0,55.0,10.56,55.0
CN,ningxiang,28.25,112.55,northern,66.2,82.0,100.0,8.95,66.2
US,tarboro,35.896666700000004,-77.53611109999999,northern,51.31,71.0,90.0,8.05,53.6
US,hinesville,31.8466667,-81.59611109999999,northern,60.87,67.0,20.0,9.17,63.0
SA,tabuk,28.399804,36.571505,northern,87.8,21.0,40.0,18.34,87.8
MX,rio muerto,27.416666999999997,-110.233333,northern,59.0,58.0,75.0,2.98,59.0
IN,karanpura,29.841944,73.454167,northern,73.33,18.0,0.0,4.07,73.33
US,spring valley,36.10805560000001,-115.24416670000001,northern,53.51,25.0,20.0,3.36,55.99
US,north miami beach,25.932777800000004,-80.16277779999999,northern,80.78,100.0,90.0,4.7,84.0
IN,nirmali,26.316667,86.583333,northern,77.59,60.0,88.0,3.62,77.59
MT,xghajra,35.885556,14.5475,northern,70.32,64.0,20.0,5.82,71.6
JP,mobara,35.416667,140.3,northern,52.99,87.0,20.0,5.82,59.0
US,santa fe springs,33.9472222,-118.08444440000001,northern,53.51,81.0,1.0,1.16,55.4
JP,futtsu,35.305278,139.818611,northern,57.99,62.0,20.0,5.82,59.0
AF,gazni,33.550833000000004,68.4225,northern,41.18,37.0,0.0,2.44,41.18
CN,zhuzhou,27.691868,113.15213700000001,northern,66.2,82.0,71.0,8.95,66.2
IN,aligarh,27.883333,78.083333,northern,72.28,21.0,0.0,2.39,72.28
IR,fasa,28.9383,53.6482,northern,71.6,17.0,0.0,4.7,71.6
PK,doaba,33.424444,70.736389,northern,60.13,28.0,0.0,2.08,60.13
IN,mursan,27.583333000000003,77.93333299999999,northern,66.2,59.0,5.0,2.24,66.2
IN,jahangirabad,28.416666999999997,78.1,northern,73.69,27.0,0.0,3.0,73.69
US,covington,35.5641667,-89.6463889,northern,50.0,81.0,1.0,4.7,53.01
CN,hanzhong,33.072778,107.03027800000001,northern,56.84,54.0,100.0,0.56,56.84
US,south daytona,29.165555600000005,-81.0047222,northern,78.73,65.0,20.0,11.41,80.01
IL,qiryat shemona,33.207334,35.572117999999996,northern,77.0,33.0,0.0,6.93,77.0
IL,qiryat atta,32.800556,35.106389,northern,77.97,69.0,75.0,12.75,78.8
TR,edremit,39.596111,27.024444,northern,64.4,45.0,0.0,4.7,64.4
JP,tamamura,36.3,139.116667,northern,46.99,76.0,2.0,1.28,46.99
IT,acquaviva delle fonti,40.9,16.833333,northern,65.53,49.0,0.0,6.93,68.0
IT,giarre,37.716667,15.183333,northern,68.18,76.0,0.0,1.01,70.0
GR,theodoriana,39.4341667,21.2086111,northern,57.99,53.0,0.0,3.49,57.99
ES,conil,36.277194,-6.088497,northern,75.99,52.0,0.0,3.76,75.99
US,north wantagh,40.6933333,-73.50805559999999,northern,41.58,65.0,1.0,9.17,44.01
IT,mugnano di napoli,40.916667,14.2,northern,68.09,72.0,20.0,5.82,69.8
TR,sirnak,37.522778,42.459444,northern,50.49,42.0,32.0,2.86,50.49
TN,manubah,36.808029,10.097205,northern,71.6,56.0,40.0,9.17,71.6
GR,rizomilos,39.4333333,22.75,northern,70.5,35.0,20.0,5.82,71.6
GR,koilas,37.4166667,23.1333333,northern,67.86,48.0,0.0,3.24,67.86
TR,gebze,40.802758000000004,29.430684000000003,northern,59.0,62.0,40.0,8.05,59.0
IT,melito di porto salvo,37.916667,15.783332999999999,northern,63.43,68.0,0.0,17.22,69.8
PT,vendas novas,38.677056,-8.457924,northern,72.5,68.0,20.0,2.24,79.0
PT,tavira,37.127338,-7.6486089999999995,northern,72.45,83.0,0.0,5.82,75.0
US,jeannette,40.328055600000006,-79.6155556,northern,39.81,82.0,0.0,4.0,41.0
IT,locri,38.233333,16.266667,northern,59.86,68.0,0.0,17.22,69.8
GR,alli meria,39.3666667,22.9833333,northern,71.6,35.0,20.0,5.82,71.6
IT,campi salentina,40.399444,18.018611,northern,66.25,72.0,0.0,11.41,68.0
PT,cantanhede,40.346708,-8.594195,northern,72.18,59.0,65.0,6.96,75.0
US,mineola,40.7491667,-73.64111109999999,northern,41.11,64.0,20.0,8.05,43.0
GR,paliambela,38.9166667,20.95,northern,69.91,56.0,0.0,8.05,70.0
AM,dalarik,40.2183333,43.8602778,northern,64.42,37.0,75.0,2.24,66.2
GR,asini,37.55,22.8666667,northern,63.9,50.0,0.0,2.48,68.0
JP,iiyama,36.85,138.366667,northern,44.92,87.0,31.0,6.6,48.99
TR,ahlat,38.751775,42.481353000000006,northern,55.49,38.0,100.0,6.06,55.49
CN,liaocheng,36.443889,115.964722,northern,57.18,51.0,61.0,2.73,57.18
CN,dezhou,37.448611,116.2925,northern,53.4,51.0,100.0,1.79,53.4
US,rancho cordova,38.5891667,-121.30166670000001,northern,46.8,70.0,1.0,1.05,53.01
TR,usak,38.673511,29.405799,northern,54.0,41.0,0.0,6.49,54.0
GR,rizarion,40.7872222,22.083888899999998,northern,70.14,73.0,1.0,0.89,72.0
JP,sakata,38.916667,139.855,northern,51.66,68.0,61.0,10.49,51.66
GR,traganon,37.8833333,21.3166667,northern,71.6,40.0,20.0,4.7,71.6
US,claremore,36.3125,-95.61583329999999,northern,50.41,61.0,1.0,8.05,54.0
US,herndon,38.96944439999999,-77.38638890000001,northern,45.45,70.0,20.0,2.1,48.0
US,ronkonkoma,40.8152778,-73.11277779999999,northern,41.29,65.0,20.0,8.05,43.0
US,frankfort,38.2008333,-84.8733333,northern,43.27,80.0,1.0,3.36,45.0
CN,zhangdian,36.790556,118.06333300000001,northern,59.45,67.0,83.0,6.76,59.45
US,fords,40.529166700000005,-74.3163889,northern,40.39,60.0,1.0,4.7,43.0
CN,linqing,36.845556,115.71166699999999,northern,55.85,38.0,69.0,1.1,55.85
CN,liangxiang,39.731944,116.14,northern,60.87,43.0,100.0,3.42,64.0
TJ,panjakent,39.5030556,67.615,northern,51.8,34.0,18.0,0.76,51.8
PT,gafanha da encarnacao,40.618058000000005,-8.733025999999999,northern,70.74,77.0,75.0,8.05,73.0
IT,rende,39.333333,16.183332999999998,northern,68.0,72.0,2.0,12.75,68.0
JP,muika,37.066666999999995,138.883333,northern,47.1,84.0,23.0,8.32,48.99
GR,sparti,37.0733333,22.429722199999997,northern,71.82,46.0,40.0,6.93,72.0
JP,daigo,36.766667,140.35,northern,48.0,73.0,2.0,1.45,48.0
IT,frattamaggiore,40.95,14.266667000000002,northern,67.69,72.0,20.0,5.82,68.0
US,independence,39.091111100000006,-94.4152778,northern,52.34,66.0,1.0,13.87,55.0
US,beaver falls,40.7519444,-80.3194444,northern,39.33,69.0,1.0,5.82,42.01
IT,martano,40.2,18.3,northern,68.49,72.0,0.0,11.41,69.01
GR,peraia,40.5002778,22.925,northern,70.54,46.0,20.0,14.99,71.6
TN,manzil bu zalafah,36.683122999999995,10.584311999999999,northern,70.72,56.0,40.0,9.17,71.6
US,grand island,40.925,-98.3416667,northern,47.71,70.0,1.0,11.41,48.99
AZ,gilazi,40.870977,49.342333,northern,69.49,60.0,24.0,3.4,69.49
PT,lisbon,38.716667,-9.133333,northern,70.11,64.0,20.0,4.7,71.6
JP,hasama,38.490528999999995,141.114724,northern,48.22,75.0,0.0,1.39,48.22
US,hastings,40.586111100000004,-98.3880556,northern,46.62,75.0,1.0,6.93,48.0
US,martinsville,36.6913889,-79.8727778,northern,46.24,65.0,90.0,8.05,46.4
ES,rota,36.622363,-6.358589,northern,73.18,64.0,0.0,9.17,78.8
ES,catarroja,39.4,-0.4,northern,72.88,64.0,0.0,8.05,75.99
US,kings park,40.8861111,-73.2577778,northern,41.27,65.0,20.0,8.05,43.0
TR,bingol,38.884722,40.493889,northern,61.18,32.0,100.0,3.71,61.18
US,danville,37.6455556,-84.7722222,northern,44.17,86.0,1.0,3.36,51.01
PT,campo maior,39.017742,-7.064967,northern,77.4,41.0,0.0,1.12,80.01
GR,velventos,40.2516667,22.063055600000002,northern,67.78,31.0,0.0,4.7,72.0
ES,aspe,38.345112,-0.767215,northern,72.32,41.0,0.0,5.82,75.2
US,montgomery,39.228055600000005,-84.35416670000001,northern,44.85,67.0,0.0,6.26,46.99
US,hays,38.8791667,-99.32638890000001,northern,46.94,81.0,1.0,10.29,50.0
GR,neokhorion,37.9166667,21.2,northern,71.6,40.0,20.0,4.7,71.6
PT,monchique,37.317747999999995,-8.555294,northern,69.8,83.0,0.0,5.82,69.8
US,new hyde park,40.735,-73.6883333,northern,41.27,64.0,20.0,8.05,44.01
US,shiloh,38.5613889,-89.8972222,northern,46.63,93.0,1.0,3.36,48.99
US,normal,40.514166700000004,-88.9905556,northern,43.97,69.0,1.0,16.11,46.99
GR,marathokambos,37.726388899999996,26.69,northern,71.6,56.0,0.0,11.41,71.6
US,bridgeton,38.76694439999999,-90.4113889,northern,48.63,65.0,40.0,11.41,51.01
ES,baeza,37.993839,-3.471029,northern,76.98,35.0,0.0,3.0,79.0
US,san ramon,37.78,-121.97694440000001,northern,50.49,70.0,1.0,3.11,54.0
GR,kato soulion,38.1666667,24.0,northern,62.11,56.0,0.0,1.99,66.99
AM,lernantsk,40.79555560000001,44.2783333,northern,59.0,41.0,75.0,5.17,59.0
ES,alhaurin de la torre,36.663106,-4.562716,northern,72.48,53.0,0.0,9.17,73.0
US,bluefield,37.269722200000004,-81.2225,northern,39.78,74.0,1.0,8.05,43.0
PT,pinhal novo,38.631057,-8.913764,northern,70.12,68.0,20.0,2.24,71.6
US,newport,39.0913889,-84.4958333,northern,44.47,62.0,20.0,10.29,46.99
US,orem,40.296944399999994,-111.69388889999999,northern,29.43,68.0,1.0,4.7,30.2
US,chowchilla,37.1230556,-120.25916670000001,northern,41.65,45.0,1.0,1.54,42.8
IR,rudbar,36.8049,49.408,northern,64.4,100.0,20.0,5.26,64.4
IT,mottola,40.635278,17.035277999999998,northern,68.95,49.0,0.0,6.93,72.0
GR,portokhelion,37.3166667,23.15,northern,67.89,48.0,0.0,3.8,67.89
US,antioch,38.005,-121.8047222,northern,47.3,82.0,0.0,2.1,48.0
US,brentwood,37.9319444,-121.6947222,northern,47.52,66.0,20.0,5.82,48.2
IT,lizzano,40.383333,17.45,northern,71.73,46.0,0.0,14.99,73.4
ES,paiporta,39.433333000000005,-0.416667,northern,72.52,64.0,0.0,8.05,75.99
US,welby,39.8366667,-104.9586111,northern,50.99,16.0,20.0,6.64,57.2
PT,setubal,38.533333,-8.9,northern,70.21,68.0,20.0,2.24,71.6
AL,leskovik,40.15138889999999,20.597222199999997,northern,66.2,42.0,1.0,4.7,66.2
GR,taxiarkhis,40.4333333,23.5166667,northern,65.61,51.0,0.0,11.27,70.0
GR,oinoussai,38.514166700000004,26.220277799999998,northern,66.2,39.0,0.0,12.75,66.2
GR,akraifnion,38.45,23.216666699999998,northern,67.5,37.0,20.0,4.7,69.01
TD,moussoro,13.6425,16.4888889,northern,96.04,12.0,0.0,15.88,96.04
PH,banalo,13.6464,121.1817,northern,77.0,88.0,100.0,1.99,77.0
PH,putlod,15.3706,120.8675,northern,80.6,78.0,75.0,8.05,80.6
PH,jamabalud,10.8788,122.6212,northern,77.58,82.0,100.0,4.59,77.58
PH,balite,14.9,120.78333300000001,northern,80.38,78.0,75.0,8.05,80.6
PH,castanas,13.8744,121.5533,northern,77.0,88.0,100.0,1.99,77.0
IN,nileshwar,12.25,75.1,northern,80.6,83.0,40.0,2.24,80.6
SV,antiguo cuscatlan,13.673055599999998,-89.24083329999999,northern,77.25,94.0,0.0,4.7,80.6
HN,el chichicaste,14.066666699999999,-86.3,northern,77.23,76.0,79.0,3.11,77.23
PH,dasol,15.9902,119.8828,northern,79.39,79.0,100.0,2.62,79.39
ML,banamba,13.55,-7.45,northern,97.38,12.0,6.0,10.31,97.38
IN,krishnarajasagara,12.436667,76.382778,northern,78.8,57.0,16.0,1.81,78.8
PH,lanao,11.2603,124.0373,northern,81.7,81.0,100.0,14.14,81.7
PH,san jose,12.455842,121.04591299999998,northern,78.49,84.0,100.0,1.72,78.49
IN,puttur,12.766667,75.216667,northern,82.4,78.0,75.0,3.36,82.4
PH,matagbak,14.130556,120.834722,northern,80.22,83.0,90.0,9.17,80.6
PH,cabugao,13.5962,124.2804,northern,81.77,82.0,100.0,24.0,81.77
IN,sattenapalle,16.4,80.18333299999999,northern,80.6,78.0,20.0,4.7,80.6
GT,tacana,15.233332999999998,-92.083333,northern,73.4,83.0,5.0,2.24,78.8
GT,joyabaj,14.995,-90.806111,northern,65.86,77.0,75.0,13.87,73.0
PH,santa juliana,15.32826,120.42863100000001,northern,80.6,78.0,75.0,8.05,80.6
GW,bissau,11.85,-15.583333300000001,northern,93.2,52.0,20.0,3.36,93.2
PH,caticlan,11.927672,121.95361000000001,northern,82.31,76.0,100.0,15.17,82.31
GT,atescatempa,14.174444,-89.7425,northern,69.26,88.0,90.0,4.7,71.6
PH,biga,13.904012,120.648754,northern,80.02,77.0,100.0,11.12,80.02
HN,jutiapa,15.766666699999998,-86.5166667,northern,80.6,74.0,40.0,3.36,80.6
HN,guayape,14.7166667,-86.83333329999999,northern,71.6,88.0,75.0,4.7,71.6
BF,po,11.169722199999999,-1.145,northern,98.17,15.0,0.0,6.26,98.17
HN,san jose de pane,14.483333300000002,-87.83333329999999,northern,62.6,93.0,75.0,9.17,62.6
GT,santa catarina mita,14.45,-89.75,northern,71.56,88.0,90.0,4.7,77.0
HN,corozal,15.8,-86.7166667,northern,80.6,74.0,40.0,3.36,80.6
PH,armenia,12.253241000000001,123.74361,northern,77.5,90.0,100.0,7.2,77.5
PH,macayug,16.0896,120.405,northern,77.2,79.0,100.0,7.05,77.2
IN,sulya,12.566667,75.383333,northern,82.4,78.0,75.0,3.36,82.4
PH,aureliana,10.8849,121.9769,northern,79.5,80.0,100.0,7.56,79.5
PH,candelaria,11.2893,122.5228,northern,76.35,84.0,100.0,6.67,76.35
ET,bati,11.183333,40.016667,northern,73.94,39.0,71.0,6.71,73.94
NG,funtua,11.523252000000001,7.30813,northern,89.44,21.0,1.0,9.62,89.44
PH,malabanban,13.933333,121.46666699999999,northern,77.0,88.0,100.0,1.99,77.0
HN,agua fria,13.45,-87.55,northern,78.8,88.0,40.0,3.36,78.8
IN,pulivendla,14.416667000000002,78.233333,northern,78.46,58.0,1.0,4.29,78.46
PH,bungsuan,11.2404,122.6976,northern,75.51,90.0,100.0,6.2,75.51
HN,san fernando,14.683333300000001,-89.1166667,northern,69.21,88.0,90.0,4.7,71.6
PH,cadiz,10.9465,123.288,northern,80.26,82.0,100.0,11.61,80.26
MR,maghama,15.516666699999998,-12.85,northern,101.39,8.0,100.0,10.6,101.39
GT,chajul,15.485278,-91.03416700000001,northern,61.75,87.0,75.0,4.03,64.4
IN,siruguppa,15.633332999999999,76.9,northern,77.09,57.0,0.0,3.04,77.09
BF,kongoussi,13.325833300000001,-1.5347222,northern,98.78,11.0,7.0,10.8,98.78
AN,willemstad,12.1,-68.91666670000001,northern,80.6,88.0,40.0,8.05,80.6
PH,dasmarinas,14.329444,120.93666699999999,northern,80.2,83.0,90.0,9.17,80.6
TH,bang lamung,12.976278,100.914056,northern,81.34,77.0,57.0,1.81,82.99
PH,puelay,15.885,120.57416699999999,northern,75.54,80.0,100.0,5.7,75.54
HN,el obraje,14.0,-86.4333333,northern,77.45,75.0,89.0,3.11,77.45
PH,carmen,15.4428,120.8231,northern,80.6,78.0,75.0,8.05,80.6
IN,mallasamudram,11.483333,78.033333,northern,79.52,61.0,2.0,3.29,79.52
GT,monjas,14.5,-89.866667,northern,68.94,88.0,90.0,4.7,77.0
GW,farim,12.4838889,-15.221666699999998,northern,95.97,28.0,96.0,4.88,95.97
PH,bingawan,11.232999999999999,122.5672,northern,75.92,85.0,100.0,6.44,75.92
TH,non sung,15.180139000000002,102.256945,northern,77.99,99.0,16.0,7.02,79.0
PH,mabitac,14.4259,121.429,northern,80.2,83.0,90.0,9.17,80.6
PH,lopez jaena,10.8478,123.4141,northern,78.71,84.0,100.0,12.44,78.71
IN,bagepalli,13.784722,77.793056,northern,73.4,78.0,40.0,3.36,73.4
HN,punta ocote,15.2,-87.2833333,northern,71.6,88.0,75.0,4.7,71.6
HN,cerro blanco,14.666666699999999,-87.7833333,northern,62.6,93.0,75.0,9.17,62.6
PH,lavezares,12.5336,124.3305,northern,81.7,83.0,100.0,20.18,81.7
GT,quetzaltenango,14.833332999999998,-91.516667,northern,61.84,76.0,40.0,3.24,70.0
PH,tiring,10.8527,122.51100000000001,northern,76.66,82.0,100.0,2.44,76.66
PH,jaena,11.416667,122.4,northern,74.73,89.0,100.0,4.72,74.73
PH,colacling,13.7815,122.8767,northern,80.1,82.0,100.0,15.79,80.1
PH,giporlos,11.12,125.449444,northern,79.79,86.0,100.0,11.05,79.79
PH,sibul,15.8,121.0,northern,74.28,78.0,100.0,7.36,74.28
TH,pho thong,14.667306,100.408778,northern,79.36,85.0,97.0,4.07,82.0
TH,plaeng yao,13.584667000000001,101.284028,northern,84.06,94.0,73.0,6.67,84.99
NE,tera,14.010555599999998,0.7530555999999999,northern,99.54,9.0,0.0,11.45,99.54
HN,san francisco de becerra,14.633333300000002,-86.1,northern,73.4,100.0,75.0,1.05,73.4
PH,consolacion,11.3284,122.6332,northern,76.46,87.0,100.0,6.13,76.46
PH,panlaitan,12.119069999999999,119.84861200000002,northern,82.81,80.0,100.0,5.93,82.81
GT,san juan atitan,15.433333,-91.633333,northern,60.8,87.0,75.0,2.33,60.8
HN,los tangos,15.15,-88.6833333,northern,68.0,94.0,90.0,2.59,68.0
IN,beypur,11.183333,75.81666700000001,northern,80.6,83.0,75.0,1.92,80.6
SN,bambey,14.7,-16.466666699999998,northern,87.8,55.0,0.0,13.87,87.8
PH,aguilar,15.8884,120.2378,northern,78.51,76.0,100.0,7.81,78.51
NI,belen,11.5,-85.8833333,northern,82.4,78.0,40.0,4.7,82.4
PH,bantigue,10.9245,124.4154,northern,81.5,80.0,100.0,6.76,81.5
SV,colon,13.55,-88.5666667,northern,77.63,88.0,20.0,4.7,80.6
PH,general emilio aguinaldo,14.184167,120.795833,northern,80.2,83.0,90.0,9.17,80.6
PH,manatal,14.816667,120.9,northern,80.19,83.0,90.0,9.17,80.6
PH,baybayin,13.82,121.27083300000001,northern,77.0,88.0,100.0,1.99,77.0
PH,san clemente,15.7124,120.359,northern,80.6,78.0,75.0,8.05,80.6
IN,ayyampettai,10.9,79.18333299999999,northern,86.0,58.0,20.0,5.82,86.0
IN,pullampadi,10.966667,78.916667,northern,86.0,58.0,20.0,5.82,86.0
HN,el rusio,14.4666667,-86.3666667,northern,75.51,79.0,30.0,1.81,75.51
PH,sabang,14.6951,120.2507,northern,78.8,83.0,75.0,2.24,78.8
HN,agua caliente,14.883333300000002,-88.8166667,northern,68.0,94.0,90.0,3.65,68.0
IN,arkalgud,12.765,76.056944,northern,68.49,86.0,22.0,2.21,68.49
SV,juayua,13.8413889,-89.7455556,northern,77.49,94.0,0.0,4.7,78.01
CO,san juan del cesar,10.771075,-73.00314,northern,81.81,73.0,68.0,6.85,81.81
SN,gossas,14.5,-16.0666667,northern,101.62,10.0,100.0,10.87,101.62
PH,infanta,15.8264,119.9077,northern,78.8,78.0,100.0,2.26,78.8
GT,cajola,14.916667000000002,-91.616667,northern,62.04,76.0,40.0,4.56,69.01
BR,ilheus,-14.816667,-39.033333,southern,81.95,70.0,67.0,10.45,81.95
PE,macusani,-14.083333300000001,-70.4333333,southern,47.64,60.0,100.0,4.88,47.64
BR,taperoa,-13.516667000000002,-39.1,southern,88.18,52.0,52.0,5.99,88.18
BR,barreiras,-12.133333,-45.0,southern,83.73,63.0,69.0,8.23,83.73
ZM,mazabuka,-15.866666699999998,27.766666700000002,southern,90.23,15.0,0.0,10.83,90.23
YT,bandrele,-12.906666699999999,45.1913889,southern,78.8,78.0,20.0,9.17,78.8
BR,almenara,-16.183332999999998,-40.7,southern,73.0,85.0,100.0,1.03,73.0
WS,leulumoega,-13.816666699999999,-171.91666669999998,southern,80.67,77.0,60.0,10.63,80.67
PE,urubamba,-13.307777800000002,-72.11527779999999,southern,62.6,39.0,75.0,4.7,62.6
PE,ayacucho,-13.1583333,-74.2238889,southern,64.4,39.0,90.0,4.7,64.4
PE,san luis,-12.066666699999999,-77.0,southern,64.72,77.0,90.0,9.17,64.99
WS,faleatiu,-13.816666699999999,-171.93333330000002,southern,80.94,77.0,61.0,10.54,80.94
BR,pau brasil,-15.45,-39.65,southern,81.95,65.0,91.0,3.24,81.95
ZM,nakambala,-15.833333300000001,27.766666700000002,southern,91.17,14.0,0.0,11.27,91.17
PE,marcona,-15.211944400000002,-75.11027779999999,southern,65.43,67.0,62.0,11.7,65.43
BR,rodrigues alves,-11.9,-65.0,southern,80.47,39.0,100.0,7.58,80.47
BO,san ramon,-13.2833333,-64.7166667,southern,80.6,54.0,75.0,17.22,80.6
AO,kuito,-12.383333,16.933332999999998,southern,78.8,41.0,20.0,10.29,78.8
AO,benguela,-12.578333,13.407222,southern,82.4,74.0,40.0,6.93,82.4
AO,caluquembe,-13.783332999999999,14.683333,southern,67.03,79.0,78.0,7.63,67.03
PE,santa maria,-12.0,-76.9,southern,64.72,77.0,90.0,9.17,64.99
ZM,mumbwa,-14.983333300000002,27.066666700000003,southern,90.68,17.0,0.0,9.93,90.68
BR,irara,-12.033333,-38.766667,southern,87.89,51.0,100.0,6.8,87.89
BR,diamantino,-14.416667000000002,-56.45,southern,85.75,50.0,97.0,7.16,85.75
PE,oropesa,-13.592777800000002,-71.7719444,southern,62.6,39.0,75.0,4.7,62.6
BO,san javier,-16.3333333,-62.6333333,southern,78.8,36.0,75.0,20.8,78.8
BR,entre rios,-11.933333,-38.083333,southern,86.34,61.0,99.0,7.74,86.34
BR,aguas vermelhas,-15.75,-41.466667,southern,74.75,71.0,100.0,4.63,74.75
MW,liwonde,-15.066666699999999,35.216666700000005,southern,84.72,36.0,83.0,2.53,84.72
PE,sicaya,-12.0333333,-75.2833333,southern,54.77,60.0,100.0,6.89,54.77
PE,huayucachi,-12.133333300000002,-75.2333333,southern,55.62,58.0,100.0,4.52,55.62
AU,katherine,-14.46517,132.263474,southern,87.8,19.0,0.0,9.17,87.8
BR,jaguaquara,-13.533332999999999,-39.966667,southern,80.1,60.0,86.0,6.26,80.1
BR,iraquara,-12.25,-41.6,southern,84.29,49.0,77.0,6.13,84.29
PE,imperial,-13.066666699999999,-76.35,southern,70.02,63.0,88.0,7.2,70.02
BR,padre bernardo,-15.35,-48.5,southern,73.06,87.0,100.0,3.13,73.06
WS,saipipi,-13.616666699999998,-172.1333333,southern,81.09,76.0,48.0,8.75,81.09
YT,chiconi,-12.833333300000001,45.110555600000005,southern,78.8,78.0,20.0,9.17,78.8
WS,sapulu,-13.8,-171.8833333,southern,81.27,76.0,54.0,10.96,81.27
PE,talavera,-13.653055599999998,-73.4288889,southern,48.2,87.0,90.0,3.36,48.2
BO,coripata,-16.3,-67.6,southern,50.0,57.0,75.0,6.93,50.0
MG,mananara,-16.1666667,49.7666667,southern,69.69,78.0,99.0,7.09,69.69
BR,ubaitaba,-14.3,-39.333333,southern,88.5,50.0,85.0,4.54,88.5
ZM,lukulu,-14.383333300000002,23.25,southern,97.21,10.0,97.0,9.98,97.21
PE,orcopampa,-15.2661111,-72.3416667,southern,58.21,35.0,59.0,1.63,58.21
PE,santiago,-14.188611100000001,-75.7141667,southern,64.99,87.0,34.0,4.0,64.99
WS,sagone,-13.65,-172.58333330000002,southern,70.25,95.0,75.0,10.27,70.25
AU,alyangula,-13.85413,136.421295,southern,75.2,94.0,0.0,7.02,75.2
BR,sao francisco,-15.95,-44.866667,southern,73.9,87.0,100.0,6.6,73.9
BR,buerarema,-14.95,-39.316666999999995,southern,83.73,63.0,88.0,3.83,83.73
AO,namibe,-15.196110999999998,12.152222,southern,78.8,74.0,20.0,17.22,78.8
BR,santana,-14.466667000000001,-41.8,southern,83.41,55.0,87.0,5.37,83.41
BR,sao domingos,-13.4,-46.316666999999995,southern,70.65,91.0,100.0,4.47,70.65
PE,chincha alta,-13.45,-76.1333333,southern,64.71,82.0,90.0,6.93,64.99
PE,san juan bautista,-14.010833300000002,-75.7358333,southern,64.72,82.0,90.0,6.93,64.99
BR,brumado,-14.216667000000001,-41.666667,southern,84.36,55.0,94.0,2.68,84.36
WS,sataua,-13.4666667,-172.66666669999998,southern,82.18,72.0,77.0,8.55,82.18
ZM,zambezi,-13.55,23.1166667,southern,96.06,13.0,90.0,7.65,96.06
BR,santo antonio de jesus,-12.966667,-39.266667,southern,88.72,50.0,58.0,4.45,88.72
WS,letogo,-13.833333300000001,-171.7,southern,81.25,75.0,50.0,12.03,81.25
BO,trinidad,-14.833333300000001,-64.9,southern,80.6,36.0,92.0,20.8,80.6
WS,saasaai,-13.616666699999998,-172.1333333,southern,81.09,76.0,48.0,8.75,81.09
BR,goias,-15.933333,-50.133333,southern,78.71,77.0,75.0,7.29,78.71
BO,san ignacio,-16.3666667,-60.95,southern,80.6,32.0,6.0,11.41,80.6
BR,niquelandia,-14.45,-48.45,southern,74.82,84.0,100.0,2.82,74.82
BR,alto paraguai,-14.5,-56.516667000000005,southern,86.7,48.0,94.0,7.11,86.7
ZM,serenje,-13.233333300000002,30.233333299999998,southern,80.42,28.0,38.0,9.55,80.42
BR,posse,-14.083332999999998,-46.366667,southern,71.82,88.0,100.0,4.97,71.82
WS,faleula,-13.8,-171.8,southern,81.36,75.0,47.0,11.7,81.36
BR,unai,-16.383333,-46.883333,southern,74.32,83.0,100.0,7.16,74.32
WS,afega,-13.8,-171.81666669999998,southern,81.37,75.0,49.0,11.52,81.37
BR,nazare,-13.033333,-39.0,southern,86.04,58.0,85.0,2.77,86.04
BR,brasilia,-15.783332999999999,-47.916667,southern,72.28,83.0,75.0,11.41,73.4
WS,vaovai,-14.016666699999998,-171.65,southern,80.46,76.0,78.0,11.54,80.46
BR,coracao de maria,-12.233333,-38.75,southern,88.05,52.0,100.0,5.17,88.05
PE,chupaca,-12.066666699999999,-75.2833333,southern,54.88,59.0,100.0,6.04,54.88
BR,inhumas,-16.366667,-49.5,southern,72.52,78.0,90.0,6.93,77.0
MW,machinga,-14.9666667,35.5166667,southern,84.78,34.0,39.0,9.82,84.78
BO,santa rosa,-14.166666699999999,-66.8833333,southern,77.0,57.0,75.0,5.82,77.0
ZM,chibombo,-14.65,28.066666700000003,southern,89.44,17.0,9.0,9.22,89.44
MW,kasungu,-13.0333333,33.4833333,southern,81.19,35.0,12.0,10.94,81.19
PE,paucartambo,-13.315555599999998,-71.5916667,southern,62.6,39.0,75.0,4.7,62.6
BR,sao joao da ponte,-15.933333,-44.016667,southern,71.85,87.0,100.0,8.1,71.85
BR,brasilia de minas,-16.211944,-44.430833,southern,71.02,89.0,100.0,7.87,71.02
BR,correntina,-13.333332999999998,-44.65,southern,76.21,79.0,100.0,5.99,76.21
WS,falealupo,-13.5,-172.8,southern,82.45,72.0,84.0,6.98,82.45
PE,ica,-14.068055599999997,-75.72555559999999,southern,64.74,82.0,90.0,6.93,64.99
WS,falefa,-13.883333300000002,-171.55,southern,81.05,76.0,59.0,11.72,81.05
BR,abadiania,-16.1,-48.8,southern,66.2,100.0,75.0,9.17,66.2
BR,mata de sao joao,-12.516667,-38.283333,southern,84.2,74.0,40.0,17.22,84.2
BR,sao desiderio,-12.366667,-44.966667,southern,83.77,58.0,75.0,7.47,83.77
BR,barra do bugres,-15.083332999999998,-57.183333,southern,88.32,45.0,85.0,5.35,88.32
BR,monte azul,-15.15,-42.883333,southern,79.39,63.0,84.0,4.99,79.39
AU,ngukurr,-14.73081,134.731018,southern,81.64,65.0,43.0,11.68,81.64
MW,thyolo,-16.0666667,35.1333333,southern,71.64,63.0,85.0,9.28,71.64
PE,azangaro,-14.916666699999999,-70.2166667,southern,57.2,28.0,0.0,2.24,57.2
AO,chissamba,-12.166667,17.333333,southern,78.8,41.0,20.0,10.29,78.8
MG,marovoay,-16.1,46.6333333,southern,89.6,38.0,20.0,8.05,89.6
BO,reyes,-14.316666699999999,-67.3833333,southern,78.44,57.0,75.0,5.82,80.6
BR,itaparica,-12.9,-38.7,southern,84.2,74.0,40.0,17.22,84.2
BR,sao tome,-5.971389,-36.073611,southern,94.39,38.0,100.0,11.79,94.39
PG,arawa,-6.2166667,155.55,southern,76.33,83.0,95.0,0.6,76.33
BR,imperatriz,-5.533333,-47.483333,southern,94.71,41.0,51.0,3.98,94.71
BR,cascavel,-4.116667,-38.233333,southern,87.8,62.0,75.0,16.11,87.8
BR,jardim de piranhas,-6.366667,-37.333333,southern,98.04,27.0,100.0,7.92,98.04
BR,presidente dutra,-5.25,-44.5,southern,98.85,33.0,100.0,4.41,98.85
PG,ambunti,-4.2333333,142.83333330000002,southern,74.03,96.0,64.0,1.79,74.03
TZ,kilimatinde,-5.85,34.95,southern,85.93,23.0,77.0,11.5,85.93
TZ,hedaru,-4.5,37.9,southern,80.98,49.0,76.0,9.71,80.98
ID,cisarua,-6.448333,107.12055600000001,southern,76.15,94.0,20.0,1.12,81.0
CD,kalemie,-5.933333,29.2,southern,79.75,55.0,25.0,4.99,79.75
PG,angoram,-4.0666667,144.06666669999998,southern,74.77,96.0,88.0,1.99,74.77
BR,axixa do tocantins,-5.551111,-47.595556,southern,92.88,45.0,71.0,3.13,92.88
TZ,korogwe,-5.15,38.4833333,southern,77.61,69.0,21.0,8.88,77.61
TZ,koani,-6.133333299999999,39.283333299999995,southern,84.2,70.0,75.0,16.11,84.2
CD,kasangulu,-4.591111,15.170832999999998,southern,88.7,55.0,75.0,9.17,89.6
ID,depok,-6.343333,106.49888899999999,southern,76.26,94.0,20.0,1.12,81.0
BI,makamba,-4.134722200000001,29.805,southern,72.63,64.0,73.0,1.34,72.63
BR,paulo ramos,-4.216667,-45.183333000000005,southern,96.08,37.0,69.0,5.61,96.08
TZ,konde,-4.95,39.75,southern,79.11,78.0,5.0,10.33,79.11
TZ,tanga,-5.0666667,39.1,southern,79.29,77.0,30.0,11.45,79.29
BR,aracati,-4.566667,-37.766667,southern,91.94,45.0,72.0,15.17,91.94
BR,agua branca,-5.883333,-42.633333,southern,101.21,28.0,96.0,2.82,101.21
CO,puerto narino,-3.770278,-70.38305600000001,southern,75.2,94.0,75.0,4.7,75.2
BR,palmeirais,-5.966667,-43.066666999999995,southern,98.17,36.0,100.0,3.24,98.17
BR,pirapemas,-3.7166669999999997,-44.233333,southern,99.3,31.0,0.0,4.38,99.3
TZ,uvinza,-5.103611099999999,30.391111100000003,southern,76.91,57.0,77.0,7.27,76.91
CD,luebo,-5.35,21.416667,southern,85.5,52.0,88.0,2.33,85.5
TZ,nangwa,-4.4666667,35.45,southern,73.26,39.0,39.0,11.43,73.26
TZ,mwembe,-4.15,37.85,southern,76.95,54.0,73.0,10.29,76.95
PG,rabaul,-4.2,152.18333330000002,southern,80.78,77.0,100.0,3.29,80.78
BR,maraba,-5.35,-49.116667,southern,86.0,79.0,75.0,5.82,86.0
TZ,mazinde,-4.8,38.216666700000005,southern,78.3,57.0,73.0,8.08,78.3
BR,vitorino freire,-4.066667,-45.166667,southern,95.99,38.0,48.0,5.46,95.99
TZ,makanya,-4.3333333,37.85,southern,80.24,50.0,84.0,9.64,80.24
BR,pacajus,-4.1666669999999995,-38.466667,southern,87.8,62.0,75.0,16.11,87.8
TZ,magomeni,-5.2333333,38.1166667,southern,77.61,61.0,43.0,11.86,77.61
CD,ilebo,-4.316667,20.583333,southern,86.45,56.0,70.0,2.37,86.45
BR,eusebio,-3.9,-38.45,southern,87.8,62.0,75.0,16.11,87.8
TZ,mwanga,-4.8,38.2,southern,79.86,55.0,71.0,8.66,79.86
PE,lagunas,-5.226944400000001,-75.67527779999999,southern,85.8,59.0,87.0,7.34,85.8
TZ,nguruka,-5.1091667,31.041944399999995,southern,84.25,32.0,89.0,6.76,84.25
BR,sao jose de mipibu,-6.0833330000000005,-35.25,southern,83.26,78.0,75.0,17.22,84.2
BR,pau dos ferros,-6.116667,-38.166667,southern,97.09,28.0,100.0,8.03,97.09
BR,boa viagem,-5.116667,-39.733333,southern,97.25,29.0,100.0,8.23,97.25
PE,paita,-5.0841667,-81.1105556,southern,66.2,82.0,90.0,14.99,66.2
BR,jaguaribe,-5.883333,-38.616667,southern,98.26,29.0,89.0,8.14,98.26
BR,itaituba,-4.216667,-56.016667000000005,southern,96.67,37.0,33.0,4.9,96.67
PG,ialibu,-6.2833333,143.9833333,southern,56.19,97.0,100.0,1.95,56.19
CG,loubomo,-4.1997222,12.673888900000001,southern,81.46,78.0,81.0,4.59,81.46
ID,sepatan,-6.118889,106.575,southern,78.73,94.0,20.0,1.12,81.0
TZ,maramba,-5.05,38.6166667,southern,69.49,86.0,27.0,5.93,69.49
ID,baturaja,-4.133333,104.166667,southern,75.13,92.0,100.0,6.02,75.13
CD,kabalo,-6.05,26.916666999999997,southern,80.94,74.0,97.0,1.79,80.94
ID,bone,-4.5386,120.3279,southern,77.2,84.0,100.0,3.96,77.2
TZ,sepuka,-4.75,34.533333299999995,southern,79.16,28.0,98.0,6.24,79.16
BR,beneditinos,-5.45,-42.366667,southern,93.2,38.0,0.0,6.93,93.2
TZ,kijini,-5.85,39.3166667,southern,84.2,70.0,75.0,16.11,84.2
BR,carire,-3.95,-40.45,southern,101.25,26.0,74.0,6.71,101.25
BR,campo maior,-4.816667,-42.166667,southern,102.02,27.0,96.0,3.4,102.02
BR,caucaia,-3.7,-38.65,southern,84.63,62.0,75.0,16.11,87.8
EC,cariamanga,-4.3333333,-79.55,southern,78.8,34.0,0.0,2.24,78.8
BR,macau,-5.116667,-36.633333,southern,87.26,59.0,100.0,15.99,87.26
PG,tari,-5.7,142.95,southern,57.27,92.0,100.0,1.14,57.27
BR,xambioa,-6.4325,-48.381944,southern,91.33,51.0,94.0,3.91,91.33
PE,yurimaguas,-5.9,-76.08333329999999,southern,75.2,94.0,75.0,5.61,75.2
BR,santa rita,-3.833333,-43.883333,southern,99.18,30.0,0.0,4.88,99.18
ID,tual,-5.6666669999999995,132.75,southern,83.14,76.0,40.0,13.49,83.14
BR,batalha,-4.016667,-42.083333,southern,111.81,19.0,68.0,0.58,111.81
BI,bururi,-3.9511111000000003,29.616666700000003,southern,65.1,86.0,78.0,1.3,65.1
ID,kresek,-6.1313889999999995,106.379722,southern,79.03,94.0,20.0,1.12,81.0
TZ,kintinku,-5.883333299999999,35.2333333,southern,84.2,35.0,40.0,18.34,84.2
CD,mbanza-ngungu,-5.25,14.866667000000001,southern,82.9,67.0,70.0,2.37,82.9
ID,cibinong,-6.398611,106.68861100000001,southern,76.55,94.0,20.0,1.12,81.0
PE,requena,-5.05,-73.83333329999999,southern,79.65,73.0,100.0,6.58,79.65
BR,acu,-5.577222,-36.9075,southern,96.8,41.0,75.0,8.05,96.8
BR,codajas,-3.833333,-62.083332999999996,southern,93.43,47.0,60.0,4.5,93.43
TZ,magugu,-4.0166667,35.7666667,southern,84.61,30.0,76.0,8.12,84.61
ID,teluknaga,-6.065,106.644167,southern,78.67,94.0,20.0,1.12,81.0
BR,ico,-6.4,-38.85,southern,101.95,24.0,98.0,5.99,101.95
BR,parambu,-6.216667,-40.716667,southern,95.29,30.0,88.0,7.18,95.29
BR,brejinho,-6.183333,-35.35,southern,83.3,78.0,75.0,17.22,84.2
PG,goroka,-6.0833333,145.3833333,southern,61.52,87.0,98.0,0.87,61.52
TZ,gairo,-6.15,36.8666667,southern,73.02,48.0,76.0,9.17,73.02
BR,sao domingos do maranhao,-5.7,-44.366667,southern,96.08,37.0,99.0,3.65,96.08
BR,porto,-3.9,-42.7,southern,104.5,23.0,43.0,3.06,104.5
BR,apodi,-5.65,-37.8,southern,96.8,41.0,75.0,8.05,96.8
CD,kikwit,-5.038611,18.818056,southern,83.71,73.0,53.0,1.21,83.71
ID,serpong,-6.316944,106.66416699999999,southern,76.77,94.0,20.0,1.12,81.0
TZ,kiomboi,-4.2666667,34.3666667,southern,80.06,29.0,92.0,5.95,80.06
BR,amarante,-6.233333,-42.833333,southern,93.7,40.0,100.0,4.52,93.7
TZ,puma,-5.0,34.7333333,southern,79.59,25.0,91.0,9.95,79.59
BR,montes altos,-5.8333330000000005,-47.066666999999995,southern,91.62,45.0,98.0,3.87,91.62
TZ,makuyuni,-4.7333333,38.1,southern,80.4,52.0,73.0,11.01,80.4
KE,shimoni,-4.65,39.3833333,southern,79.7,79.0,4.0,12.39,79.7
BR,esperantinopolis,-4.883333,-44.883333,southern,97.09,36.0,100.0,5.77,97.09
BR,uniao,-4.5833330000000005,-42.866667,southern,93.2,38.0,0.0,6.93,93.2
BR,parnamirim,-5.9166669999999995,-35.25,southern,83.07,78.0,75.0,17.22,84.2
PE,pueblo nuevo,-5.7166667,-79.8833333,southern,64.99,84.0,90.0,3.0,64.99
TZ,sokoni,-6.4333333,39.55,southern,83.55,70.0,75.0,16.11,84.2
SB,buala,-8.1333333,159.58333330000002,southern,79.84,76.0,67.0,1.77,79.84
ID,singaraja,-8.1127,115.0949,southern,79.2,71.0,92.0,3.58,79.2
PE,pomabamba,-8.833333300000001,-77.4666667,southern,54.48,62.0,100.0,3.98,54.48
TZ,liuli,-11.083333300000001,34.6333333,southern,81.01,58.0,10.0,11.79,81.01
BR,rio largo,-9.483333,-35.85,southern,86.0,66.0,40.0,13.87,86.0
TZ,matamba,-8.983333300000002,33.966666700000005,southern,64.11,57.0,93.0,3.62,64.11
BR,gameleira,-8.583333,-35.4,southern,85.3,61.0,70.0,9.95,85.3
PE,tarma,-11.419722199999999,-75.6908333,southern,51.91,68.0,100.0,5.26,51.91
ID,mataram,-8.583333,116.11666699999999,southern,78.8,88.0,75.0,1.43,78.8
BR,satuba,-9.566667,-35.816666999999995,southern,86.0,66.0,40.0,13.87,86.0
BR,capim grosso,-11.366667,-40.016667,southern,82.71,58.0,97.0,3.74,82.71
TZ,liwale,-9.766666699999998,37.9333333,southern,81.7,49.0,52.0,4.25,81.7
BR,sertania,-8.083333,-37.266667,southern,92.17,27.0,95.0,6.8,92.17
PE,santiago de chuco,-8.15,-78.1833333,southern,59.32,46.0,96.0,0.81,59.32
BR,maruim,-10.75,-37.083333,southern,86.0,66.0,40.0,16.11,86.0
BR,gilbues,-9.838889,-45.353889,southern,84.87,62.0,97.0,3.83,84.87
BR,jaru,-10.433333,-62.45,southern,76.53,75.0,100.0,5.99,76.53
TZ,matai,-8.3,31.516666700000002,southern,75.2,53.0,75.0,3.4,75.2
PE,laredo,-8.1,-78.95,southern,60.8,87.0,90.0,6.93,60.8
CD,likasi,-10.981389,26.733333000000002,southern,85.08,26.0,19.0,4.32,85.08
TZ,mbinga,-10.933333300000001,35.0166667,southern,78.8,47.0,75.0,11.41,78.8
BR,piritiba,-11.733333,-40.566666999999995,southern,78.87,65.0,99.0,4.16,78.87
PE,casma,-9.4666667,-78.3166667,southern,70.02,64.0,99.0,6.58,70.02
BR,xapuri,-10.65,-68.516667,southern,73.4,78.0,90.0,6.93,73.4
TZ,mtama,-10.3,39.3666667,southern,80.67,61.0,46.0,8.5,80.67
TZ,mbamba,-11.2833333,34.7666667,southern,79.61,62.0,14.0,7.92,79.61
BR,pilao arcado,-10.15,-42.433333000000005,southern,85.28,54.0,82.0,11.61,85.28
BR,barreiros,-8.816667,-35.2,southern,84.42,64.0,76.0,10.16,84.42
BR,conceicao do coite,-11.55,-39.266667,southern,84.29,54.0,97.0,5.21,84.29
TZ,ilembo,-9.25,33.3833333,southern,64.6,68.0,45.0,6.06,64.6
PE,trujillo,-8.1166667,-79.0333333,southern,60.8,87.0,90.0,6.93,60.8
BR,belem de sao francisco,-8.766667,-38.966667,southern,94.28,29.0,100.0,6.82,94.28
PE,la oroya,-11.5333333,-75.9,southern,47.17,71.0,100.0,5.57,47.17
TZ,mahanje,-9.933333300000001,35.3333333,southern,78.1,47.0,43.0,7.29,78.1
BR,vitoria de santo antao,-8.116667,-35.3,southern,86.0,66.0,75.0,10.29,86.0
BR,garanhuns,-8.9,-36.483333,southern,82.69,51.0,93.0,8.81,82.69
BR,brejo da madre de deus,-8.15,-36.366667,southern,87.03,42.0,99.0,11.27,87.03
BR,buique,-8.616667,-37.15,southern,88.18,35.0,91.0,4.45,88.18
TZ,mlimba,-8.8,35.8166667,southern,85.48,43.0,2.0,3.4,85.48
ZM,nchelenge,-9.35,28.733333299999998,southern,82.8,48.0,3.0,5.32,82.8
BR,itaiba,-8.95,-37.416667,southern,92.71,31.0,91.0,2.95,92.71
MW,chitipa,-9.7166667,33.2666667,southern,77.86,39.0,93.0,9.1,77.86
BR,igreja nova,-10.116667,-36.65,southern,88.92,53.0,90.0,11.88,88.92
AO,saurimo,-9.66078,20.391553,southern,86.0,45.0,40.0,5.46,86.0
BR,sento se,-9.666667,-41.3,southern,85.91,51.0,45.0,9.91,85.91
BR,pedra,-8.5,-36.95,southern,93.02,31.0,88.0,5.48,93.02
PE,morococha,-11.599722199999999,-76.14111109999999,southern,40.42,79.0,100.0,3.44,40.42
BR,sao luis do quitunde,-9.333333,-35.55,southern,86.0,66.0,40.0,13.87,86.0
BR,pombos,-8.15,-35.4,southern,86.0,66.0,75.0,10.29,86.0
PE,satipo,-11.266666699999998,-74.6833333,southern,67.91,82.0,100.0,1.43,67.91
BR,porto walter,-8.261111,-72.738889,southern,72.21,89.0,100.0,5.32,72.21
BR,tamandare,-8.75,-35.1,southern,83.48,67.0,77.0,9.6,83.48
BR,remanso,-9.683333,-42.066666999999995,southern,84.38,57.0,67.0,10.27,84.38
SB,auki,-8.766666699999998,160.7,southern,77.94,85.0,44.0,3.85,77.94
BR,sao joao,-8.866667,-36.366667,southern,83.44,52.0,96.0,8.81,83.44
BR,itiuba,-10.716667,-39.85,southern,85.71,50.0,96.0,3.42,85.71
BR,ibimirim,-8.533333,-37.7,southern,93.4,29.0,92.0,5.06,93.4
BR,coruripe,-10.133333,-36.166667,southern,84.34,65.0,88.0,14.09,84.34
BR,maribondo,-9.583333,-36.233333,southern,86.0,66.0,40.0,13.87,86.0
ID,wlingi,-8.0776,112.3311,southern,72.19,91.0,100.0,3.36,72.19
BR,messias,-9.416667,-35.833333,southern,86.0,66.0,40.0,13.87,86.0
TZ,laela,-8.566666699999999,32.05,southern,79.07,32.0,11.0,2.48,79.07
PE,junin,-11.1588889,-75.9930556,southern,43.47,82.0,100.0,7.29,43.47
BR,areia branca,-10.766667,-37.316666999999995,southern,86.0,66.0,40.0,16.11,86.0
PE,huarmey,-10.066666699999999,-78.16666670000001,southern,67.32,72.0,99.0,7.61,67.32
BR,santo amaro das brotas,-10.783333,-37.066666999999995,southern,86.0,66.0,40.0,16.11,86.0
BR,utinga,-10.983333,-42.95,southern,81.99,64.0,73.0,7.9,81.99
TZ,kiwira,-9.166666699999999,33.533333299999995,southern,71.22,61.0,25.0,5.59,71.22
BR,porto da folha,-9.916667,-37.283333,southern,94.03,38.0,95.0,9.84,94.03
BR,dois riachos,-9.383333,-37.083333,southern,95.31,31.0,92.0,9.6,95.31
PG,balimo,-8.05,142.95,southern,73.58,97.0,86.0,3.06,73.58
TZ,chimala,-8.85,34.0166667,southern,80.33,33.0,55.0,5.14,80.33
AO,kibala,-10.73366,14.979949,southern,77.32,70.0,39.0,7.27,77.32
TZ,itumba,-9.4,33.1833333,southern,75.22,44.0,83.0,8.1,75.22
TZ,matiri,-10.75,34.9,southern,75.69,49.0,56.0,6.6,75.69
BR,araua,-11.266667,-37.616667,southern,86.0,66.0,40.0,16.11,86.0
PE,moche,-8.1833333,-79.0333333,southern,60.8,87.0,90.0,6.93,60.8
BR,neopolis,-10.3,-36.583333,southern,89.04,54.0,87.0,12.88,89.04
PE,san miguel de cauri,-10.1,-76.58333329999999,southern,64.4,77.0,90.0,3.36,64.4
PG,daru,-9.083333300000001,143.2,southern,77.83,86.0,31.0,9.6,77.83
BR,ouro preto do oeste,-10.666667,-62.3,southern,76.44,71.0,100.0,7.05,76.44
BR,dianopolis,-11.700556,-46.743056,southern,74.68,86.0,100.0,5.91,74.68
ID,tanggul,-8.1645,113.4525,southern,76.53,83.0,95.0,3.04,76.53
BR,nossa senhora da gloria,-10.233333,-37.416667,southern,88.66,47.0,95.0,8.66,88.66
BR,cachoeirinha,-8.483333,-36.233333,southern,86.14,47.0,97.0,11.05,86.14
PE,tingo maria,-9.3,-75.9833333,southern,71.6,94.0,75.0,2.24,71.6
BR,porto nacional,-10.708056,-48.308333000000005,southern,82.4,74.0,75.0,4.7,82.4
BR,moreno,-8.116667,-35.1,southern,86.0,66.0,75.0,10.29,86.0
PE,llata,-9.416666699999999,-76.7833333,southern,54.66,59.0,100.0,3.31,54.66
BR,nossa senhora do socorro,-10.866667,-37.116667,southern,86.0,66.0,40.0,16.11,86.0
BR,altinho,-8.483333,-36.066666999999995,southern,85.69,50.0,99.0,10.69,85.69
BR,sao miguel dos campos,-9.783333,-36.083333,southern,86.0,66.0,40.0,13.87,86.0
BR,capoeiras,-8.75,-36.633333,southern,83.52,45.0,92.0,7.67,83.52
BR,ipojuca,-8.4,-35.066666999999995,southern,86.0,66.0,75.0,10.29,86.0
AO,luena,-11.783333,19.916667,southern,82.4,58.0,40.0,5.82,82.4
ID,boyolangu,-8.1181,111.8935,southern,73.08,89.0,96.0,6.71,73.08
TZ,kitangari,-10.65,39.3333333,southern,73.9,78.0,36.0,7.63,73.9
BR,cha grande,-8.233333,-35.45,southern,86.0,66.0,75.0,10.29,86.0
BO,guayaramerin,-10.8,-65.3833333,southern,77.0,73.0,90.0,8.05,77.0
ID,genteng,-8.366667,114.15,southern,72.75,79.0,73.0,2.77,72.75
BO,buena vista,-17.45,-63.6666667,southern,82.4,32.0,1.0,28.86,82.4
MZ,quelimane,-17.8786111,36.8883333,southern,84.2,69.0,20.0,9.17,86.0
BO,eucaliptus,-17.5833333,-67.5166667,southern,57.45,34.0,68.0,8.12,57.45
MW,nsanje,-16.9166667,35.2666667,southern,73.54,83.0,87.0,7.78,73.54
MU,notre dame,-20.140555600000003,57.5530556,southern,68.81,68.0,40.0,10.29,69.8
BR,tupaciguara,-18.583333,-48.7,southern,77.0,69.0,75.0,6.93,77.0
BR,conceicao da barra,-18.583333,-39.75,southern,75.76,86.0,100.0,4.38,75.76
BR,palmeiras de goias,-16.816667000000002,-49.916667,southern,82.63,65.0,57.0,4.03,82.63
BR,ibirite,-20.033333,-44.066666999999995,southern,75.29,57.0,75.0,6.93,77.0
PE,cocachacra,-17.088333300000002,-71.7575,southern,69.12,62.0,49.0,7.31,69.12
MU,fond du sac,-20.043055600000002,57.5786111,southern,68.0,67.0,1.0,3.0,68.0
CL,iquique,-20.22083,-70.14305999999999,southern,64.4,68.0,0.0,16.11,64.4
ZW,mvuma,-19.283333300000002,30.5333333,southern,81.45,21.0,0.0,11.45,81.45
BO,samaipata,-18.15,-63.8666667,southern,67.5,36.0,1.0,6.85,67.5
BR,ipaba,-19.383333,-42.416667,southern,72.73,83.0,100.0,3.15,72.73
BO,colomi,-17.35,-65.8666667,southern,73.4,40.0,20.0,6.93,73.4
BR,rio verde de mato grosso,-18.933332999999998,-54.86666700000001,southern,83.34,58.0,67.0,6.26,83.34
MU,long mountain,-20.1430556,57.56222220000001,southern,68.79,68.0,40.0,10.29,69.8
BO,potosi,-19.5836111,-65.7530556,southern,50.13,48.0,37.0,7.76,50.13
BO,pailon,-17.65,-62.75,southern,82.4,32.0,12.0,28.86,82.4
BO,betanzos,-19.550555600000003,-65.4533333,southern,48.2,76.0,90.0,6.93,48.2
BR,santa vitoria,-18.833333,-50.133333,southern,87.24,43.0,42.0,7.61,87.24
BR,corinto,-18.35,-44.45,southern,69.39,94.0,100.0,1.9,69.39
BR,uberlandia,-18.916667,-48.3,southern,77.0,69.0,75.0,6.93,77.0
ZW,redcliffe,-19.033333300000002,29.7833333,southern,87.33,14.0,0.0,10.2,87.33
BR,paranaiba,-19.666667,-51.183333000000005,southern,83.25,50.0,51.0,8.3,83.25
BR,itumbiara,-18.416667,-49.216667,southern,86.58,49.0,45.0,6.29,86.58
MU,ripailles,-20.193611100000002,57.572222200000006,southern,68.83,68.0,40.0,10.29,69.8
BR,frutal,-20.033333,-48.916667,southern,81.16,59.0,90.0,8.72,81.16
ZW,kwekwe,-18.9166667,29.816666700000003,southern,87.76,14.0,0.0,10.47,87.76
BR,padre paraiso,-17.1,-41.516667,southern,67.8,95.0,100.0,5.39,67.8
BO,challapata,-18.9,-66.7666667,southern,56.8,31.0,44.0,9.04,56.8
MU,plaines des papayes,-20.065,57.5725,southern,68.0,67.0,1.0,3.0,68.0
MG,miandrivazo,-19.5166667,45.466666700000005,southern,87.08,46.0,94.0,14.83,87.08
BO,uncia,-18.45,-66.6166667,southern,47.82,50.0,37.0,6.53,47.82
BR,barao de cocais,-19.933332999999998,-43.466667,southern,73.38,64.0,75.0,9.17,77.0
MU,brisee verdiere,-20.1638889,57.646666700000004,southern,68.81,68.0,40.0,10.29,69.8
PF,afaahiti,-17.75,-149.2833333,southern,73.4,83.0,20.0,3.36,73.4
PF,mataiea,-17.7666667,-149.41666669999998,southern,73.4,83.0,20.0,3.36,73.4
BR,goiania,-16.666667,-49.266667,southern,77.0,78.0,90.0,6.93,77.0
BO,mizque,-17.9333333,-65.3166667,southern,64.33,47.0,71.0,5.39,64.33
BR,inhapim,-19.55,-42.116667,southern,68.52,89.0,100.0,4.61,68.52
BO,machacamarca,-18.1666667,-67.0333333,southern,57.81,34.0,30.0,4.88,57.81
BR,corumba,-19.016667,-57.65,southern,77.7,57.0,40.0,11.41,78.8
BW,nata,-20.216666699999998,26.1833333,southern,97.72,10.0,0.0,11.86,97.72
ZW,mutoko,-17.4,32.216666700000005,southern,79.34,31.0,74.0,9.28,79.34
BR,parauna,-17.033333,-50.433333000000005,southern,83.7,56.0,66.0,4.29,83.7
BR,ituiutaba,-18.966667,-49.466667,southern,87.01,45.0,8.0,7.16,87.01
BR,ladario,-19.016667,-57.583332999999996,southern,77.77,57.0,40.0,11.41,78.8
BR,raul soares,-20.083333,-42.366667,southern,67.68,88.0,98.0,4.92,67.68
MG,antanifotsy,-19.5833333,47.5666667,southern,55.24,80.0,9.0,5.66,55.24
BR,itupeva,-17.416667,-40.483333,southern,75.29,81.0,100.0,4.18,75.29
BR,betim,-19.966667,-44.216667,southern,75.22,57.0,75.0,6.93,77.0
BR,patrocinio,-18.95,-46.983333,southern,75.29,72.0,93.0,7.61,75.29
MU,grand gaube,-20.0063889,57.6608333,southern,68.0,67.0,0.0,3.0,68.0
MU,roche terre,-20.0186111,57.644722200000004,southern,68.0,67.0,0.0,3.0,68.0
BO,cotoca,-17.75,-62.9833333,southern,82.4,32.0,0.0,28.86,82.4
BR,alvinopolis,-20.1,-43.05,southern,69.57,79.0,99.0,8.41,69.57
BR,carmo do cajuru,-20.183332999999998,-44.766667,southern,73.99,66.0,96.0,11.27,73.99
BW,kachikau,-18.1666667,24.466666699999998,southern,98.65,10.0,4.0,10.13,98.65
BR,santa luzia,-19.783333,-43.866667,southern,73.27,64.0,75.0,9.17,77.0
BO,viloco,-16.95,-67.55,southern,51.71,56.0,52.0,6.96,51.71
BO,san julian,-17.783333300000002,-62.8666667,southern,82.4,32.0,1.0,28.86,82.4
AO,ondjiva,-17.066667000000002,15.733332999999998,southern,87.8,35.0,40.0,4.7,87.8
BR,capelinha,-17.7,-42.516667,southern,65.08,100.0,100.0,3.13,65.08
BO,punata,-17.55,-65.83333329999999,southern,73.4,40.0,20.0,6.93,73.4
NA,otavi,-19.65,17.3333333,southern,89.11,23.0,86.0,3.38,89.11
BR,pecanha,-18.55,-42.566666999999995,southern,65.34,96.0,100.0,4.14,65.34
ZM,siavonga,-16.533333300000002,28.7166667,southern,94.42,23.0,19.0,1.43,94.42
BO,capinota,-17.716666699999998,-66.2333333,southern,73.4,40.0,20.0,6.93,73.4
BR,curvelo,-18.75,-44.416667,southern,68.16,93.0,100.0,6.76,68.16
ZM,gwembe,-16.5,27.616666700000003,southern,88.23,16.0,0.0,9.24,88.23
ZW,marondera,-18.1833333,31.55,southern,75.06,34.0,69.0,9.48,75.06
BO,irpa irpa,-17.716666699999998,-66.2666667,southern,73.4,40.0,20.0,6.93,73.4
PE,yunguyo,-17.1688889,-70.8819444,southern,72.9,23.0,15.0,10.07,72.9
ZM,choma,-16.8166667,26.983333299999998,southern,86.27,18.0,0.0,9.42,86.27
BR,camapua,-19.5,-54.083332999999996,southern,80.78,58.0,83.0,7.92,80.78
BO,colquiri,-17.4166667,-67.1333333,southern,46.45,55.0,50.0,6.35,46.45
PF,fare,-16.7,-151.0166667,southern,79.07,75.0,12.0,17.9,79.07
BO,puerto suarez,-18.95,-57.8,southern,78.06,57.0,25.0,9.17,78.8
BO,abapo,-18.8333333,-63.466666700000005,southern,82.58,22.0,0.0,7.63,82.58
BR,santa helena de goias,-17.716667,-50.583333,southern,83.86,54.0,64.0,5.79,83.86
ZW,mount darwin,-16.783333300000002,31.5833333,southern,83.44,31.0,27.0,12.3,83.44
BR,malacacheta,-17.833333,-42.083333,southern,67.86,97.0,100.0,2.19,67.86
BR,lagoa formosa,-18.783333,-46.4,southern,75.74,72.0,68.0,5.95,75.74
BR,laranja da terra,-19.9,-41.066666999999995,southern,71.73,86.0,100.0,2.82,71.73
BR,itauna,-20.066667000000002,-44.566666999999995,southern,76.15,57.0,75.0,6.93,77.0
BR,dores do indaia,-19.45,-45.6,southern,74.46,69.0,94.0,4.61,74.46
MU,verdun,-20.228333300000003,57.5438889,southern,68.86,68.0,40.0,10.29,69.8
BO,los negros,-17.7333333,-63.4333333,southern,82.4,32.0,0.0,28.86,82.4
PF,haapu,-16.7666667,-151.0,southern,77.99,77.0,16.0,17.94,77.99
BO,puerto pailas,-17.65,-62.8,southern,82.4,32.0,12.0,28.86,82.4
BR,uberaba,-19.75,-47.916667,southern,78.8,69.0,75.0,5.82,78.8
BR,papagaios,-19.533333,-44.75,southern,77.65,64.0,96.0,9.19,77.65
PF,fitii,-16.7333333,-151.0333333,southern,77.85,77.0,14.0,17.92,77.85
BR,sabinopolis,-18.666667,-43.1,southern,63.59,98.0,100.0,2.1,63.59
MU,bon accueil,-20.1708333,57.656388899999996,southern,68.83,68.0,40.0,10.29,69.8
BR,cristalina,-16.75,-47.6,southern,74.44,82.0,84.0,7.07,74.44
BR,contagem,-19.916667,-44.1,southern,73.69,57.0,75.0,6.93,77.0
ZW,mutare,-18.966666699999998,32.6666667,southern,77.59,38.0,10.0,10.89,77.59
ID,bandung,-6.9038889999999995,107.61861100000002,southern,69.98,93.0,100.0,1.52,69.98
BR,esperanca,-7.016667,-35.85,southern,80.6,69.0,75.0,14.99,80.6
TZ,kilosa,-6.8333333,36.9833333,southern,83.89,38.0,75.0,4.68,83.89
ID,jetis,-7.6683330000000005,110.46305600000001,southern,73.36,90.0,89.0,2.66,73.36
ID,cepu,-7.1475,111.5906,southern,74.34,95.0,100.0,2.53,74.34
ID,karanganyar,-7.293889,109.57666699999999,southern,57.87,89.0,100.0,0.63,64.99
TZ,ikwiriri,-7.9833333,39.0166667,southern,81.72,62.0,75.0,7.99,81.72
ID,plered,-6.640556,107.386389,southern,73.89,91.0,100.0,1.7,73.89
ID,driyorejo,-7.3659,112.6219,southern,75.27,90.0,100.0,4.97,75.27
PE,juanjui,-7.1833333,-76.75,southern,72.75,94.0,100.0,1.41,72.75
BR,sao jose do egito,-7.466667,-37.266667,southern,94.5,27.0,96.0,6.69,94.5
TZ,namanyere,-7.5166667,31.05,southern,76.6,39.0,44.0,2.37,76.6
TZ,mafinga,-7.25,35.0666667,southern,87.37,21.0,100.0,10.02,87.37
ID,srandakan,-7.938611,110.250556,southern,78.4,83.0,68.0,4.97,78.4
BR,simoes,-7.6,-40.816666999999995,southern,92.01,35.0,78.0,3.87,92.01
PE,bellavista,-7.0666667,-76.5333333,southern,77.0,83.0,90.0,3.36,77.0
ID,rancaekek,-6.960278,107.7575,southern,70.84,92.0,100.0,1.9,70.84
BR,condado,-7.5833330000000005,-35.1,southern,86.0,70.0,75.0,12.75,86.0
BR,alagoa nova,-7.066667,-35.766667,southern,80.6,69.0,75.0,14.99,80.6
BR,itabaiana,-7.3333330000000005,-35.333333,southern,84.04,70.0,75.0,12.75,86.0
BR,araruna,-6.533333,-35.733333,southern,86.38,49.0,100.0,10.85,86.38
ID,tegal,-6.8694,109.1402,southern,77.86,87.0,96.0,3.27,77.86
ID,magetan,-7.656667,111.33138899999999,southern,72.48,92.0,100.0,4.43,72.48
ID,soreang,-7.033056,107.51833300000001,southern,71.08,89.0,100.0,1.81,71.08
BR,juazeiro do norte,-7.2,-39.333333,southern,97.54,27.0,83.0,7.09,97.54
PE,chongoyape,-6.6405556,-79.3891667,southern,64.4,77.0,90.0,8.05,64.4
ID,pekalongan,-6.8886,109.6753,southern,57.58,82.0,100.0,4.05,64.99
TZ,iringa,-7.7666667,35.7,southern,78.8,39.0,20.0,16.11,78.8
ID,dampit,-8.042222,112.51527800000001,southern,69.57,91.0,100.0,2.98,69.57
ID,gebog,-6.735,110.8444,southern,74.57,95.0,100.0,5.41,74.57
TZ,chala,-7.5833333,31.266666700000002,southern,75.2,53.0,75.0,5.7,75.2
BR,crato,-7.233333,-39.383333,southern,96.85,27.0,77.0,7.2,96.85
BR,juazeirinho,-6.816667,-38.05,southern,98.15,26.0,100.0,8.84,98.15
ID,sleman,-7.715555999999999,110.355556,southern,75.22,87.0,78.0,2.42,75.22
TZ,utete,-7.9833333,38.783333299999995,southern,83.26,56.0,92.0,9.13,83.26
ID,sooko,-7.3532,112.5203,southern,74.43,92.0,100.0,5.12,74.43
TZ,chalinze,-6.6,38.35,southern,79.11,73.0,47.0,6.8,79.11
ID,kaliwungu,-6.95,110.233333,southern,55.6,10.0,100.0,4.43,64.99
ID,ciomas,-6.601389,106.77138899999999,southern,75.31,100.0,100.0,1.61,81.0
ID,dukuhturi,-6.8865,108.8432,southern,77.0,89.0,100.0,3.02,77.0
BR,itatuba,-7.383333,-35.65,southern,80.6,69.0,75.0,14.99,80.6
BR,teixeira,-7.216667,-37.25,southern,93.13,28.0,95.0,5.84,93.13
ID,prigen,-7.6816,112.6393,southern,69.91,94.0,100.0,0.49,69.91
ID,randudongkal,-7.0981,109.3243,southern,60.22,88.0,100.0,0.89,64.99
ID,diwek,-7.5833330000000005,112.233333,southern,72.72,92.0,100.0,0.76,72.72
CD,gandajika,-6.75,23.95,southern,76.75,88.0,80.0,3.06,76.75
ID,kendal,-6.9213,110.2022,southern,55.83,10.0,100.0,5.32,64.99
AO,uige,-7.613282000000001,15.056621,southern,87.8,52.0,75.0,6.93,87.8
PE,chocope,-7.791388900000001,-79.2216667,southern,60.8,87.0,90.0,6.93,60.8
BR,alagoinha,-6.933333,-35.55,southern,80.6,69.0,75.0,14.99,80.6
TZ,bungu,-7.633333299999999,39.05,southern,78.66,69.0,100.0,7.4,78.66
PE,celendin,-6.870277799999999,-78.1516667,southern,60.8,29.0,90.0,3.36,60.8
ID,lembang,-6.786389,107.7025,southern,61.84,100.0,100.0,0.98,61.84
BR,balsas,-7.516667,-46.033333,southern,85.48,64.0,87.0,6.33,85.48
BR,cruzeiro do sul,-7.633333,-72.6,southern,71.6,100.0,90.0,5.82,71.6
BR,pilar,-7.25,-35.266667,southern,86.0,70.0,75.0,12.75,86.0
ID,lamongan,-7.1194,112.4172,southern,75.11,92.0,100.0,6.85,75.11
ID,sidoarjo,-7.4478,112.7183,southern,75.11,91.0,100.0,4.52,75.11
ID,pati,-6.7559,111.038,southern,74.82,95.0,100.0,4.79,74.82
BR,assare,-6.866667,-39.866667,southern,97.63,27.0,60.0,6.82,97.63
ID,taman,-6.9,109.38333300000001,southern,60.57,84.0,97.0,0.67,64.99
ID,delanggu,-7.616667,110.683333,southern,74.57,91.0,94.0,5.14,74.57
TZ,mbumi,-7.9,39.2,southern,80.44,67.0,81.0,6.38,80.44
BR,macaparana,-7.566667,-35.45,southern,80.6,69.0,75.0,14.99,80.6
ID,astanajapura,-6.8017,108.6311,southern,76.57,88.0,100.0,2.64,76.57
ID,klaten,-7.705833,110.606389,southern,75.09,90.0,89.0,4.47,75.09
PE,santiago de cao,-7.958888900000001,-79.2391667,southern,60.8,87.0,90.0,6.93,60.8
ID,bambanglipuro,-7.95,110.28333300000001,southern,78.28,84.0,71.0,4.94,78.28
ID,ciampea,-6.540278,106.69555600000001,southern,74.73,100.0,100.0,1.34,81.0
PG,bulolo,-7.2,146.65,southern,69.46,77.0,98.0,1.28,69.46
ID,sukabumi,-6.918056,106.926667,southern,73.63,100.0,100.0,0.13,81.0
TZ,kisanga,-7.4333333,37.7,southern,84.92,51.0,70.0,7.83,84.92
BR,carolina,-7.3333330000000005,-47.466667,southern,90.27,52.0,78.0,4.65,90.27
ID,tayu,-6.5397,111.0518,southern,76.87,89.0,100.0,4.09,76.87
ID,ngaglik,-7.654167,110.448333,southern,72.1,92.0,90.0,2.46,72.1
TZ,kirando,-7.4166667,30.6,southern,82.18,51.0,8.0,7.65,82.18
ID,prambanan,-7.75,110.49416699999999,southern,75.78,87.0,87.0,3.74,75.78
BR,aracoiaba,-7.8,-35.05,southern,86.0,66.0,75.0,10.29,86.0
ID,ngaglik,-7.6841669999999995,110.32611100000001,southern,74.5,88.0,80.0,2.3,74.5
ID,kramat,-6.8688,109.2074,southern,78.21,85.0,94.0,2.95,78.21
BR,pianco,-7.2,-37.95,southern,97.16,27.0,100.0,9.33,97.16
BR,pirpirituba,-6.766667,-35.5,southern,91.13,43.0,100.0,11.27,91.13
TZ,ngerengere,-6.75,38.1166667,southern,84.2,58.0,40.0,6.4,84.2
PE,cajamarca,-7.1666667,-78.5166667,southern,60.8,29.0,90.0,3.36,60.8
BR,rio tinto,-6.8,-35.083333,southern,86.0,70.0,75.0,12.75,86.0
ID,slawi,-6.9816,109.1407,southern,76.75,90.0,99.0,2.15,76.75
TZ,mlandizi,-6.7,38.7333333,southern,82.4,65.0,75.0,11.41,82.4
BR,guarabira,-6.85,-35.483333,southern,82.89,69.0,75.0,14.99,86.0
BR,patos,-7.016667,-37.266667,southern,97.36,27.0,99.0,6.85,97.36
BR,jardim do serido,-6.5833330000000005,-36.766667,southern,97.18,29.0,100.0,10.63,97.18
ID,pangkah,-6.9745,109.1732,southern,64.99,89.0,99.0,2.28,64.99
ID,kasihan,-7.826944,110.329167,southern,76.87,85.0,74.0,1.99,76.87
BR,sao raimundo das mangabeiras,-7.016667,-45.483333,southern,86.81,59.0,73.0,4.45,86.81
BR,lagoa seca,-7.15,-35.85,southern,80.6,69.0,75.0,14.99,80.6
PE,otuzco,-7.9,-78.58333329999999,southern,60.8,87.0,90.0,6.93,60.8
ID,salatiga,-7.321389,110.507778,southern,50.0,10.0,100.0,0.74,50.0
ID,kedungwaru,-8.0348,112.2037,southern,70.95,94.0,100.0,4.5,70.95
ID,grogol,-7.296389,110.746944,southern,74.05,97.0,100.0,2.93,74.05
PE,saposoa,-6.9333333,-76.8,southern,77.0,83.0,90.0,3.36,77.0
PG,wau,-7.3333333,146.7166667,southern,65.79,80.0,100.0,1.32,65.79
AU,leopold,-38.19001,144.468246,southern,52.61,93.0,90.0,8.05,53.6
AR,trelew,-43.250075,-65.313295,southern,82.78,15.0,0.0,3.44,82.78
NZ,taupo,-38.683333000000005,176.083333,southern,55.99,90.0,89.0,5.01,55.99
CL,coronel,-37.016667,-73.133333,southern,57.2,82.0,90.0,4.7,57.2
NZ,wellsford,-36.283333,174.51666699999998,southern,61.66,95.0,51.0,3.0,62.01
NZ,rolleston,-43.583333,172.383333,southern,50.95,87.0,93.0,6.93,52.0
NZ,rakaia,-43.75,172.01666699999998,southern,48.99,96.0,98.0,1.99,48.99
CL,graneros,-34.066666999999995,-70.733333,southern,71.6,46.0,0.0,2.62,71.6
CL,santa cruz,-34.633333,-71.366667,southern,72.27,60.0,0.0,3.36,75.99
NZ,mamaku,-38.1,176.083333,southern,59.85,90.0,91.0,5.01,62.01
ZA,whittlesea,-32.175877,26.824371999999997,southern,61.29,62.0,100.0,15.43,61.29
CL,victoria,-38.216667,-72.333333,southern,70.32,48.0,12.0,3.98,70.32
CL,lota,-37.083333,-73.166667,southern,57.2,82.0,90.0,4.7,57.2
NZ,dunedin,-45.866667,170.5,southern,47.84,81.0,0.0,11.05,50.0
AR,olavarria,-36.892715,-60.322540000000004,southern,66.0,47.0,0.0,3.0,66.0
NZ,otorohanga,-38.183333000000005,175.2,southern,62.01,81.0,98.0,4.0,62.01
NZ,whakatane,-37.983333,177.0,southern,60.96,99.0,25.0,6.6,62.01
CL,san javier,-35.6,-71.75,southern,75.76,48.0,0.0,2.46,75.76
AR,lujan,-33.035471,-68.87782299999999,southern,77.0,17.0,0.0,9.17,77.0
UY,montevideo,-34.85805560000001,-56.1708333,southern,66.07,48.0,40.0,4.74,66.99
NZ,tuatapere,-46.133333,167.683333,southern,44.01,86.0,3.0,3.0,44.01
CL,puerto varas,-41.319461,-72.985378,southern,53.6,87.0,75.0,9.17,53.6
NZ,bluff,-46.6,168.333333,southern,44.01,86.0,53.0,3.0,44.01
CL,curanilahue,-37.466667,-73.35,southern,76.87,32.0,0.0,4.09,76.87
AR,mendoza,-32.890845,-68.82717099999999,southern,77.0,17.0,0.0,9.17,77.0
AR,san pedro,-33.679127,-59.666635,southern,71.01,35.0,0.0,4.0,71.01
CL,yumbel,-37.083333,-72.56666700000001,southern,63.14,64.0,0.0,5.82,68.0
AR,san francisco,-31.427971000000003,-62.08265600000001,southern,72.57,28.0,0.0,5.01,73.0
NZ,dobson,-42.45,171.3,southern,50.31,83.0,74.0,6.02,50.31
ZA,calvinia,-31.470688,19.776007999999997,southern,79.66,15.0,0.0,14.43,79.66
NZ,takaka,-40.85,172.8,southern,53.01,89.0,100.0,3.0,53.01
NZ,turangi,-39.0,175.933333,southern,57.0,96.0,100.0,6.2,57.0
AU,colac,-38.339001,143.584885,southern,45.34,93.0,18.0,3.0,46.0
CL,san vicente,-34.433333000000005,-71.083333,southern,71.6,46.0,0.0,5.68,71.6
AU,geelong,-38.153461,144.358093,southern,52.54,93.0,90.0,8.05,53.6
AU,benalla,-36.551128000000006,145.984253,southern,50.14,81.0,0.0,4.7,53.6
NZ,paihia,-35.283333,174.083333,southern,59.0,96.0,18.0,1.99,59.0
CL,collipulli,-37.95,-72.43333299999999,southern,68.0,64.0,0.0,5.82,68.0
ZA,port elizabeth,-33.917988,25.570066,southern,66.2,68.0,0.0,6.93,66.2
CL,chimbarongo,-34.7,-71.05,southern,72.28,60.0,0.0,3.36,75.99
CL,lautaro,-38.516667,-72.45,southern,60.8,82.0,0.0,2.24,60.8
UY,colonia,-34.466666700000005,-57.85,southern,62.6,77.0,20.0,11.41,62.6
ZA,oudtshoorn,-33.592343,22.205482,southern,62.6,59.0,20.0,13.87,62.6
NZ,paeroa,-37.366667,175.666667,southern,60.64,89.0,81.0,8.99,63.0
CL,nacimiento,-37.5,-72.666667,southern,73.4,56.0,0.0,6.93,73.4
CL,el monte,-33.683333000000005,-71.016667,southern,77.47,33.0,0.0,3.36,82.0
AR,necochea,-38.547259000000004,-58.736753,southern,67.71,44.0,3.0,7.45,67.71
NZ,woodend,-43.316666999999995,172.666667,southern,51.94,87.0,90.0,6.93,52.0
NZ,darfield,-43.483333,172.116667,southern,49.69,87.0,65.0,6.93,51.8
AR,parana,-31.731966999999997,-60.523802,southern,76.35,24.0,0.0,1.99,77.0
ZA,bredasdorp,-34.532154,20.040308,southern,66.2,48.0,0.0,13.87,66.2
AU,singleton,-32.567421,151.166031,southern,53.4,95.0,1.0,4.5,55.0
NZ,burnham,-43.616667,172.316667,southern,49.87,87.0,95.0,6.93,51.8
NZ,riverton,-46.35,168.01666699999998,southern,44.01,86.0,18.0,3.0,44.01
CL,melipilla,-33.7,-71.216667,southern,65.37,100.0,90.0,5.82,75.0
ZA,east london,-33.011051,27.910049,southern,66.2,68.0,20.0,8.05,66.2
AU,cootamundra,-34.640949,148.028381,southern,52.0,94.0,100.0,4.61,52.0
AU,leeton,-34.551048,146.404831,southern,53.83,100.0,75.0,4.7,55.99
AU,bendigo,-36.758179,144.28024299999998,southern,51.51,54.0,0.0,1.01,52.0
CL,villarrica,-39.266667,-72.216667,southern,66.2,63.0,0.0,3.36,66.2
AR,santa rosa,-36.616667,-64.283333,southern,73.44,32.0,0.0,13.11,73.44
NZ,karamea,-41.25,172.116667,southern,54.12,80.0,92.0,10.4,54.12
ZA,grabouw,-34.151519,19.015091,southern,70.12,52.0,0.0,26.4,72.0
CL,san clemente,-35.55,-71.483333,southern,74.62,49.0,0.0,4.7,75.99
AR,puerto madryn,-42.769201,-65.038513,southern,79.54,17.0,0.0,4.12,79.54
AR,punta alta,-38.875875,-62.073589,southern,72.16,29.0,0.0,5.66,72.16
NZ,ahipara,-35.166667,173.166667,southern,62.53,95.0,37.0,5.12,62.53
NZ,foxton,-40.466667,175.3,southern,57.67,88.0,69.0,4.0,57.99
AU,wodonga,-36.121792,146.888092,southern,54.21,93.0,0.0,1.12,55.4
AR,santa fe,-31.629484,-60.701036,southern,76.64,27.0,0.0,1.01,77.0
NZ,ranfurly,-45.133333,170.1,southern,42.01,96.0,66.0,3.71,42.01
AU,swan hill,-35.3386,143.559525,southern,52.27,76.0,0.0,9.4,52.27
AU,craigieburn,-37.6,144.95,southern,52.38,76.0,75.0,9.17,53.6
ZA,somerset west,-34.079375,18.85699,southern,69.76,52.0,0.0,26.4,72.0
AU,broken hill,-31.961729,141.459976,southern,53.6,81.0,0.0,11.54,53.6
CL,concepcion,-36.833333,-73.05,southern,57.2,82.0,90.0,4.7,57.2
ZA,dordrecht,-31.371996999999997,27.048778999999996,southern,59.94,59.0,100.0,11.52,59.94
NZ,hamilton,-37.783333,175.283333,southern,61.48,53.0,79.0,3.0,62.01
AR,villa carlos paz,-31.424138,-64.497778,southern,73.11,34.0,0.0,5.99,73.99
NZ,moerewa,-35.383333,174.033333,southern,59.0,96.0,30.0,1.99,59.0
AR,mar del plata,-38.002278000000004,-57.557539,southern,68.0,45.0,0.0,6.93,68.0
NZ,waihi,-37.383333,175.833333,southern,60.58,82.0,77.0,13.0,63.0
AU,mudgee,-32.433333000000005,149.583333,southern,45.84,100.0,2.0,3.36,46.99
NZ,edendale,-46.316666999999995,168.783333,southern,44.01,86.0,19.0,3.0,44.01
ZA,worcester,-33.64651,19.448523,southern,74.5,29.0,0.0,14.0,74.5
NZ,matata,-37.883333,176.75,southern,60.98,99.0,29.0,9.1,62.01
AU,sale,-38.11095,147.068024,southern,51.01,96.0,2.0,1.01,51.01
NZ,kawerau,-38.1,176.7,southern,60.71,99.0,58.0,3.69,62.01
NZ,muriwai beach,-36.816666999999995,174.45,southern,61.32,92.0,56.0,8.97,62.01
NZ,winton,-46.15,168.333333,southern,44.01,86.0,10.0,3.0,44.01
AR,neuquen,-38.951606,-68.059102,southern,75.2,31.0,0.0,13.87,75.2
NZ,fairlie,-44.1,170.833333,southern,53.01,97.0,33.0,4.38,53.01
AR,tandil,-37.321674,-59.133164,southern,69.01,30.0,0.0,1.01,69.01
AU,mittagong,-34.45002,150.445724,southern,58.01,84.0,50.0,4.0,61.0
NZ,otautau,-46.15,168.0,southern,44.01,86.0,2.0,3.0,44.01
NZ,kerepehi,-37.3,175.533333,southern,60.66,53.0,60.0,3.0,63.0
AU,clifton springs,-38.1567,144.555099,southern,53.17,87.0,90.0,9.17,53.6
NZ,pleasant point,-44.266667,171.133333,southern,53.01,97.0,100.0,4.18,53.01
NZ,timaru,-44.4,171.25,southern,53.01,97.0,94.0,6.46,53.01
UY,treinta y tres,-33.2333333,-54.3833333,southern,66.72,57.0,8.0,5.01,66.72
BR,porto alegre,-30.033333000000002,-51.2,southern,72.03,43.0,75.0,11.41,73.4
BR,sao pedro do sul,-29.616667,-54.166667000000004,southern,68.0,64.0,75.0,14.99,68.0
BR,tubarao,-28.5,-49.016667,southern,71.08,49.0,94.0,5.95,71.08
ZA,mmabatho,-25.85,25.633333,southern,82.4,30.0,75.0,13.87,82.4
BR,guaiba,-30.111110999999998,-51.316666999999995,southern,72.14,43.0,75.0,11.41,73.4
BR,sapucaia,-29.833333000000003,-51.15,southern,73.47,49.0,40.0,12.75,73.99
BR,sao leopoldo,-29.766666999999998,-51.15,southern,73.45,49.0,40.0,12.75,73.99
AR,santiago del estero,-27.795112,-64.261489,southern,77.47,27.0,0.0,4.61,77.47
PY,san juan del parana,-27.3,-55.966667,southern,76.05,57.0,20.0,6.93,77.0
BR,francisco beltrao,-26.083333,-53.066667,southern,79.61,53.0,30.0,1.77,79.61
BR,sombrio,-29.116667,-49.666667,southern,69.24,58.0,77.0,7.29,69.24
AU,narrabri,-30.32612,149.783707,southern,51.8,87.0,0.0,9.17,51.8
ZA,sasolburg,-26.815934000000002,27.829707,southern,67.8,60.0,95.0,16.71,67.8
ZA,klerksdorp,-26.852128000000004,26.666719,southern,63.32,80.0,95.0,17.0,63.32
BR,criciuma,-28.666666999999997,-49.383333,southern,70.68,50.0,91.0,5.75,70.68
PY,capitan miranda,-27.2,-55.8,southern,76.05,57.0,20.0,6.93,77.0
ZA,deneysville,-26.890797999999997,28.097067,southern,64.38,70.0,92.0,16.89,64.38
BR,sao mateus do sul,-25.866667,-50.383333,southern,61.34,68.0,99.0,4.03,61.34
PY,alberdi,-26.166667,-58.15,southern,78.8,44.0,0.0,16.11,78.8
BR,sao luiz gonzaga,-28.4,-54.966667,southern,73.96,56.0,16.0,6.26,73.96
AU,inverell,-29.774031,151.111664,southern,49.62,84.0,0.0,2.77,51.01
PY,pirapo,-26.85,-55.533333,southern,75.2,57.0,20.0,6.93,75.2
BR,triunfo,-29.933333,-51.716667,southern,71.83,43.0,75.0,11.41,73.4
ZA,vrede,-27.425734000000002,29.165854,southern,57.25,84.0,100.0,11.25,57.25
BR,bento goncalves,-29.166666999999997,-51.516667,southern,64.71,67.0,75.0,6.93,70.0
BR,taquari,-29.8,-51.85,southern,72.0,61.0,68.0,7.0,72.0
BR,araquari,-26.3692,-48.7221,southern,71.6,64.0,75.0,11.41,71.6
PY,carlos antonio lopez,-26.4,-54.766667000000005,southern,84.99,41.0,11.0,2.8,84.99
ZA,ekangala,-25.696193,28.749183000000002,southern,80.24,34.0,34.0,16.11,81.0
AU,caboolture,-27.08465,152.951096,southern,63.43,3.0,11.0,4.14,64.0
BR,morro da fumaca,-28.666666999999997,-49.2,southern,69.73,55.0,82.0,7.45,69.73
AU,deception bay,-27.193540999999996,153.026306,southern,63.27,3.0,8.0,5.1,64.0
ZA,mpophomeni,-29.568219,30.186182000000002,southern,59.0,95.0,100.0,1.19,59.0
BR,itapema,-27.099166999999998,-48.615,southern,72.45,56.0,75.0,9.17,73.4
BR,cachoeira do sul,-30.033333000000002,-52.9,southern,71.71,54.0,78.0,8.61,71.71
BR,lajeado,-29.45,-51.966667,southern,71.38,66.0,96.0,6.29,72.0
ZA,vanderbijlpark,-26.711710999999998,27.837949,southern,72.68,35.0,40.0,21.92,75.0
ZA,mooi river,-29.208242,29.994598,southern,53.22,96.0,100.0,6.71,53.22
PY,ybytimi,-25.766667,-56.783333,southern,80.69,44.0,0.0,5.73,80.69
AR,mercedes,-29.181858000000002,-58.078951,southern,70.34,61.0,0.0,13.33,70.34
PY,jesus,-27.05,-55.783333,southern,76.1,57.0,20.0,6.93,77.0
BR,arroio dos ratos,-30.083333000000003,-51.716667,southern,72.1,43.0,75.0,11.41,73.4
PY,natalio,-26.716666999999998,-55.083332999999996,southern,80.58,49.0,33.0,3.98,80.58
ZA,verwoerdburg,-25.840795,28.176102,southern,80.02,34.0,19.0,13.87,81.0
BR,sapiranga,-29.633333,-51.0,southern,73.67,55.0,92.0,3.0,73.99
BR,dois irmaos,-29.583333000000003,-51.083333,southern,73.65,55.0,97.0,8.01,73.99
PY,general artigas,-26.933333,-56.216667,southern,76.05,57.0,20.0,6.93,77.0
BR,camaqua,-30.85,-51.816666999999995,southern,67.01,63.0,87.0,8.39,67.01
BR,novo hamburgo,-29.683333,-51.133333,southern,73.63,55.0,95.0,8.01,73.99
ZA,christiana,-27.914022999999997,25.161111,southern,75.99,39.0,100.0,17.52,75.99
BR,sao bento do sul,-26.249722,-49.3825,southern,53.01,95.0,100.0,4.43,53.01
BR,itaqui,-29.133333,-56.55,southern,71.42,60.0,0.0,14.45,71.42
BR,forquilhinha,-28.75,-49.466667,southern,72.36,46.0,96.0,5.17,72.36
PY,bella vista,-27.05,-55.55,southern,76.01,57.0,20.0,6.93,77.0
NA,keetmanshoop,-26.5833333,18.1333333,southern,91.76,11.0,5.0,14.45,91.76
PY,carmen del parana,-27.233333000000002,-56.216667,southern,76.1,53.0,20.0,3.36,77.0
BR,tramandai,-29.966666999999998,-50.133333,southern,67.73,59.0,97.0,7.87,67.73
BR,santa rosa,-27.866667,-54.483332999999995,southern,80.01,53.0,56.0,2.53,80.01
PY,alto vera,-26.583333000000003,-55.63333299999999,southern,78.98,49.0,40.0,4.38,78.98
BR,santa maria,-29.683333,-53.8,southern,68.0,64.0,75.0,14.99,68.0
BR,sao miguel do oeste,-26.75,-53.566667,southern,80.01,41.0,65.0,1.72,80.01
ZA,brandfort,-28.700083000000003,26.459684000000003,southern,60.8,87.0,75.0,2.24,60.8
ZA,ulundi,-28.335233000000002,31.416171999999996,southern,62.33,85.0,100.0,5.57,62.33
BR,bage,-31.333333000000003,-54.1,southern,69.8,49.0,20.0,10.29,69.8
PY,ybycui,-26.016667,-57.05,southern,79.41,43.0,0.0,7.25,79.41
AU,gunnedah,-30.98065,150.258377,southern,51.8,87.0,2.0,5.82,51.8
PY,general delgado,-27.166666999999997,-56.516667000000005,southern,76.17,53.0,20.0,3.36,77.0
ZA,vryburg,-26.956588,24.728403,southern,86.25,22.0,98.0,8.12,86.25
ZA,fochville,-26.488623999999998,27.493869,southern,75.0,33.0,93.0,1.99,75.0
BR,brusque,-27.1,-48.933333000000005,southern,72.43,56.0,75.0,9.17,73.4
MZ,maputo,-25.965277800000003,32.5891667,southern,75.31,78.0,75.0,13.87,77.0
ZA,pretoria,-25.706944,28.229444,southern,80.2,34.0,5.0,16.11,81.0
PY,san patricio,-26.966666999999998,-56.816667,southern,77.72,46.0,0.0,7.67,77.72
AU,grafton,-29.690121,152.93336499999998,southern,60.87,93.0,0.0,6.93,62.6
BR,dois vizinhos,-25.783333,-53.083332999999996,southern,84.52,42.0,36.0,1.3,84.52
BR,quarai,-30.383333,-56.45,southern,70.21,55.0,0.0,12.62,70.21
LS,thaba-tseka,-29.5333333,28.6,southern,49.51,81.0,100.0,1.79,49.51
BR,getulio vargas,-27.833333000000003,-52.266667,southern,69.37,57.0,32.0,6.17,69.37
AU,casino,-28.858190999999998,153.04748500000002,southern,63.28,82.0,0.0,5.82,64.4
ZA,delmas,-26.146601,28.683221999999997,southern,76.32,35.0,40.0,21.92,81.0
BR,itajai,-26.883333,-48.65,southern,73.4,56.0,75.0,9.17,73.4
ZA,ermelo,-26.533333000000002,29.983333000000002,southern,61.47,67.0,81.0,12.37,61.47
BR,videira,-27.0,-51.133333,southern,75.96,40.0,65.0,2.91,75.96
BR,charqueadas,-29.966666999999998,-51.633333,southern,72.54,43.0,75.0,11.41,73.4
BR,flores da cunha,-29.0287,-51.1822,southern,64.76,67.0,75.0,6.93,70.0
BR,estancia velha,-29.65,-51.183333000000005,southern,73.96,55.0,97.0,8.01,75.0
BR,passo fundo,-28.266666999999998,-52.4,southern,69.93,54.0,47.0,6.24,69.93
ZA,bronkhorstspruit,-25.810153,28.742483,southern,80.2,34.0,41.0,16.11,81.0
BR,sao sepe,-30.166666999999997,-53.566667,southern,68.0,64.0,75.0,14.99,68.0
ZA,winburg,-28.518046000000002,27.009331,southern,61.86,78.0,94.0,14.97,61.86
BR,ivoti,-29.6,-51.166667,southern,73.98,55.0,98.0,8.01,75.0
AU,moree,-29.46278,149.841568,southern,55.4,71.0,0.0,7.63,55.4
BR,cerro largo,-28.15,-54.75,southern,80.01,53.0,28.0,4.7,80.01
BR,indaial,-26.8922,-49.2239,southern,73.02,54.0,69.0,1.99,73.99
BR,santo augusto,-27.85,-53.783333,southern,70.23,63.0,57.0,6.02,70.23
BR,uruguaiana,-29.75,-57.083332999999996,southern,73.4,49.0,20.0,17.22,73.4
BR,canoas,-29.933333,-51.183333000000005,southern,72.95,49.0,40.0,12.75,73.99
ZA,ventersburg,-28.085614,27.138143,southern,62.22,79.0,97.0,17.94,62.22
BR,cacador,-26.783333000000002,-51.0,southern,72.25,45.0,36.0,4.76,72.25
PY,maciel,-26.166667,-56.466667,southern,80.42,44.0,2.0,6.44,80.42
BW,mahalapye,-23.0666667,26.8333333,southern,85.82,26.0,66.0,16.53,85.82
BW,gaborone,-24.646388899999998,25.9119444,southern,87.8,22.0,20.0,14.99,87.8
BR,bela vista do paraiso,-23.0,-51.2,southern,78.8,47.0,40.0,11.41,78.8
BR,paraisopolis,-22.55,-45.783333,southern,68.45,88.0,75.0,4.7,71.6
BR,louveira,-23.066667000000002,-46.966667,southern,73.4,60.0,75.0,23.04,73.4
BR,taquarituba,-23.516667,-49.25,southern,73.47,54.0,99.0,15.57,73.47
PY,lambare,-25.35,-57.65,southern,78.8,44.0,0.0,12.75,78.8
BR,sao vicente,-23.966667,-46.383333,southern,68.0,94.0,90.0,3.36,68.0
BR,rio branco do sul,-25.166667,-49.3,southern,59.0,82.0,75.0,10.29,61.0
PY,itacurubi de la cordillera,-25.45,-56.85,southern,81.68,44.0,2.0,5.88,81.68
BR,piquete,-22.6,-45.183333000000005,southern,71.6,73.0,75.0,5.82,71.6
MG,taolanaro,-25.033333300000002,47.0,southern,73.4,83.0,20.0,24.16,73.4
BR,lorena,-22.733333,-45.133333,southern,71.6,73.0,75.0,5.82,71.6
ZA,phalaborwa,-23.942987,31.141073,southern,78.8,65.0,89.0,11.41,78.8
PY,yataity del norte,-24.833333,-56.35,southern,83.68,50.0,16.0,3.65,83.68
BR,jandaia do sul,-23.6,-51.65,southern,78.8,47.0,40.0,11.41,78.8
BR,santos,-23.95,-46.333333,southern,68.0,94.0,90.0,3.36,68.0
BR,ilhabela,-23.783333,-45.35,southern,67.01,88.0,100.0,7.36,67.01
BR,mangaratiba,-22.9609,-44.0402,southern,73.4,78.0,90.0,12.75,73.4
PY,union,-24.8,-56.55,southern,86.02,43.0,6.0,3.89,86.02
BR,serra negra,-22.6,-46.7,southern,73.4,60.0,75.0,23.04,73.4
BR,itapecerica da serra,-23.716667,-46.833333,southern,63.52,88.0,90.0,13.87,66.2
BW,mochudi,-24.4166667,26.15,southern,87.8,22.0,20.0,14.99,87.8
BR,pirai,-22.627778,-43.901944,southern,73.4,78.0,90.0,12.75,73.4
BW,khudumelapye,-23.8833333,24.75,southern,91.02,17.0,40.0,10.92,91.02
BR,parati,-23.216667,-44.716667,southern,71.6,73.0,75.0,5.82,71.6
MZ,chokwe,-24.533333300000002,32.9833333,southern,78.85,59.0,60.0,16.37,78.85
BR,cianorte,-23.616667,-52.61666700000001,southern,73.08,58.0,81.0,7.2,73.08
BR,tibagi,-24.5,-50.4,southern,66.99,88.0,95.0,8.01,66.99
BR,cabo frio,-22.883333,-42.016667,southern,68.97,94.0,90.0,8.05,69.8
BR,aracoiaba da serra,-23.5049,-47.6185,southern,73.99,57.0,94.0,10.0,73.99
PY,aregua,-25.3,-57.416667000000004,southern,78.8,44.0,0.0,12.75,78.8
BW,otse,-25.0166667,25.7333333,southern,87.8,22.0,20.0,14.99,87.8
BR,limeira,-22.561667,-47.402778000000005,southern,76.15,60.0,75.0,23.04,80.6
BR,nova esperanca,-23.182485,-52.203005,southern,75.31,57.0,48.0,9.93,75.31
BR,pontal do parana,-25.58,-48.354167,southern,62.6,72.0,90.0,10.29,62.6
BR,guaratingueta,-22.815155999999998,-45.18923,southern,71.6,73.0,75.0,5.82,71.6
BR,pilar do sul,-23.816667000000002,-47.7,southern,60.49,89.0,98.0,14.0,60.49
BR,pirapora do bom jesus,-23.4,-47.0,southern,67.82,72.0,75.0,10.29,73.99
PY,doctor juan manuel frutos,-25.366667,-55.8,southern,79.52,62.0,24.0,3.31,79.52
PY,caacupe,-25.383333,-57.15,southern,78.8,44.0,0.0,12.75,78.8
BR,quatro barras,-25.366667,-49.083333,southern,59.65,82.0,75.0,10.29,61.0
BR,marechal candido rondon,-24.566667000000002,-54.066667,southern,80.06,46.0,52.0,2.24,80.06
BR,eldorado,-23.783333,-54.316667,southern,77.0,53.0,13.0,6.55,77.0
BR,irati,-25.4735,-50.6524,southern,62.64,68.0,99.0,4.54,62.64
BR,moreira sales,-24.016667,-53.05,southern,73.72,56.0,91.0,7.65,73.72
ZA,brits,-25.634731,27.780224,southern,79.41,36.0,20.0,17.22,80.6
BR,varzea paulista,-23.2,-46.833333,southern,68.61,60.0,75.0,23.04,73.4
BR,rolandia,-23.3,-51.366667,southern,78.8,47.0,40.0,11.41,78.8
BR,alto piquiri,-24.016667,-53.466667,southern,76.03,53.0,76.0,5.66,76.03
BR,itatiba,-23.0,-46.85,southern,73.4,60.0,75.0,23.04,73.4
BR,barbosa ferraz,-24.066667000000002,-52.05,southern,72.21,55.0,89.0,6.78,72.21
ZA,temba,-25.381708,28.264376000000002,southern,80.2,34.0,21.0,16.11,81.0
PY,asuncion,-25.266667,-57.666667000000004,southern,78.8,44.0,0.0,12.75,78.8
BR,amambai,-23.083333,-55.216667,southern,75.54,63.0,37.0,6.26,75.54
BR,santa isabel,-23.3158,-46.2241,southern,65.1,72.0,90.0,10.29,68.0
BR,sao jose dos pinhais,-25.516667,-49.216667,southern,58.8,87.0,75.0,12.75,61.0
BW,bokaa,-24.45,26.0166667,southern,87.8,22.0,20.0,14.99,87.8
PY,altos,-25.233333,-57.25,southern,78.8,44.0,0.0,12.75,78.8
MG,farafangana,-22.8166667,47.8333333,southern,70.29,68.0,3.0,9.46,70.29
BR,itarare,-24.116667,-49.333333,southern,68.0,87.0,96.0,5.01,68.0
BR,guaira,-24.066667000000002,-54.25,southern,77.43,52.0,25.0,4.25,77.43
BR,tapejara,-23.683332999999998,-52.88333299999999,southern,74.43,56.0,64.0,6.71,74.43
PY,doctor cecilio baez,-25.05,-56.316667,southern,83.26,48.0,19.0,4.23,83.26
BR,pindamonhangaba,-22.916667,-45.466667,southern,68.68,88.0,75.0,4.7,71.6
BW,ratholo,-22.6833333,27.5833333,southern,85.21,25.0,0.0,16.35,85.21
ZA,ellisras,-23.6649,27.744263,southern,87.96,24.0,47.0,16.89,87.96
MG,ambovombe,-25.1666667,46.0833333,southern,73.74,65.0,0.0,15.75,73.74
BR,candido mota,-22.716667,-50.383333,southern,79.23,49.0,77.0,12.95,79.23
CL,taltal,-25.4,-70.483333,southern,64.51,57.0,35.0,6.69,64.51
BR,guapimirim,-22.533333,-42.983333,southern,71.47,83.0,90.0,5.82,73.4
BR,sao pedro,-22.55,-47.9,southern,73.99,61.0,75.0,16.22,73.99
BR,artur nogueira,-22.583333,-47.15,southern,74.71,60.0,75.0,23.04,80.6
AU,yeppoon,-23.126829,150.74406399999998,southern,73.4,83.0,0.0,6.4,73.4
BR,curitiba,-25.416667,-49.25,southern,58.95,82.0,75.0,10.29,61.0
BR,maua,-23.666667,-46.45,southern,62.19,88.0,90.0,13.87,63.0
BR,extrema,-22.85,-46.316666999999995,southern,67.32,72.0,75.0,12.75,68.0
BR,guararema,-23.4132,-46.0377,southern,67.12,72.0,75.0,12.75,68.0
BW,hukuntsi,-24.0,21.75,southern,95.83,12.0,66.0,10.76,95.83
BR,jacarei,-23.316667000000002,-45.966667,southern,68.0,72.0,75.0,12.75,68.0
BR,poa,-23.533333,-46.333333,southern,64.45,72.0,90.0,10.29,66.2
BR,piracaia,-23.05,-46.35,southern,66.81,72.0,90.0,10.29,68.0
BR,mandaguacu,-23.333333,-52.083333,southern,75.29,56.0,55.0,8.7,75.29
PY,natalicio talavera,-25.633333,-56.3,southern,82.72,45.0,8.0,5.73,82.72
BR,itatinga,-23.116667,-48.6,southern,68.88,66.0,89.0,12.26,68.88
BR,sao miguel do iguacu,-25.35,-54.166667000000004,southern,77.85,53.0,0.0,5.82,78.8
PY,belen,-23.466110999999998,-57.26194399999999,southern,85.37,46.0,0.0,4.41,85.37
BR,sao bernardo do campo,-23.7,-46.55,southern,62.26,88.0,90.0,13.87,63.0
BR,ponta pora,-22.533333,-55.716667,southern,73.4,64.0,75.0,6.93,73.4
ZA,warmbad,-24.883333,28.283333000000002,southern,82.0,37.0,86.0,5.99,82.0
BR,queimados,-22.722897,-43.556315999999995,southern,72.21,73.0,90.0,4.7,73.4
BR,cacapava,-23.1,-45.716667,southern,67.1,72.0,75.0,12.75,68.0
PY,nueva londres,-25.416667,-56.533333,southern,82.49,45.0,0.0,5.73,82.49
BR,sumare,-22.8,-47.283333,southern,73.4,60.0,75.0,23.04,73.4
BW,mokobeng,-22.9833333,27.5833333,southern,84.54,25.0,1.0,16.71,84.54
PY,san alberto,-24.966667,-54.9,southern,82.4,48.0,40.0,4.7,82.4
BR,juquia,-24.316667000000002,-47.633333,southern,65.59,93.0,100.0,3.2,65.59
BR,seropedica,-22.747222,-43.716944,southern,73.98,78.0,90.0,12.75,75.2
BR,lencois paulista,-22.6,-48.783333,southern,78.39,61.0,75.0,14.99,78.8
NA,rehoboth,-23.3166667,17.0833333,southern,90.21,18.0,93.0,6.35,90.21
BR,batatais,-20.883333,-47.616667,southern,80.6,51.0,75.0,9.17,80.6
BR,birigui,-21.3,-50.316666999999995,southern,82.8,49.0,18.0,12.53,82.8
BR,colina,-20.733333,-48.583333,southern,79.66,60.0,97.0,8.81,79.66
MU,new grove,-20.4086111,57.6136111,southern,69.8,68.0,40.0,10.29,69.8
BR,santa adelia,-21.266667,-48.8,southern,80.19,55.0,84.0,12.93,80.19
MG,fianarantsoa,-21.4333333,47.0833333,southern,56.91,85.0,5.0,6.62,56.91
NC,moindou,-21.7,165.68333330000002,southern,77.0,57.0,0.0,6.93,77.0
BR,tupa,-21.933332999999998,-50.5,southern,80.37,52.0,46.0,13.35,80.37
BR,pouso alegre,-22.216667,-45.933333000000005,southern,66.99,71.0,100.0,5.28,66.99
BR,bom jardim,-22.15,-42.416667,southern,63.27,91.0,99.0,2.86,63.27
RE,les trois-bassins,-21.1,55.3,southern,62.24,81.0,39.0,1.01,68.0
BR,sao carlos,-22.016667,-47.9,southern,80.6,47.0,75.0,14.99,80.6
BR,guapiacu,-20.833333,-49.216667,southern,78.8,44.0,75.0,6.93,78.8
BW,bobonong,-21.966666699999998,28.3333333,southern,87.8,31.0,20.0,10.29,87.8
PY,bella vista,-22.133333,-56.516667000000005,southern,81.34,57.0,77.0,5.06,81.34
BR,monte alto,-21.283333,-48.483333,southern,79.34,56.0,95.0,11.32,79.34
MG,ankazoabo,-22.283333300000002,44.5166667,southern,86.07,39.0,21.0,11.52,86.07
MU,camp de masque,-20.2369444,57.6633333,southern,68.86,68.0,40.0,10.29,69.8
NA,usakos,-22.0,15.6,southern,91.65,14.0,59.0,18.92,91.65
BR,dois corregos,-22.366667,-48.35,southern,74.1,60.0,83.0,15.95,74.1
BR,araraquara,-21.783333,-48.166667,southern,73.47,63.0,92.0,12.19,73.47
MU,grande riviere noire,-20.360277800000002,57.366111100000005,southern,68.86,68.0,40.0,10.29,69.8
BO,villamontes,-21.25,-63.5,southern,81.88,24.0,53.0,9.37,81.88
BW,ghanzi,-21.5666667,21.783333300000002,southern,95.74,13.0,60.0,4.7,95.74
MU,clemencia,-20.2638889,57.7061111,southern,68.88,68.0,40.0,10.29,69.8
BR,bataipora,-22.333333,-53.283333,southern,79.86,52.0,27.0,6.42,79.86
BR,carandai,-20.933332999999998,-43.916667,southern,62.6,77.0,90.0,8.05,62.6
NA,khorixas,-20.3666667,14.9666667,southern,95.54,19.0,92.0,6.26,95.54
CL,tocopilla,-22.09198,-70.19792,southern,69.85,47.0,31.0,7.27,69.85
MU,grand bel air,-20.4063889,57.6736111,southern,69.8,68.0,40.0,10.29,69.8
PF,avera,-22.45,-151.35,southern,72.1,84.0,100.0,23.47,72.1
BR,pereira barreto,-20.633333,-51.116667,southern,82.72,48.0,44.0,9.57,82.72
MG,ambalavao,-21.6,47.0,southern,59.5,77.0,0.0,6.85,59.5
MU,dubreuil,-20.2975,57.595,southern,68.9,68.0,40.0,10.29,69.8
BR,sao joaquim da barra,-20.583333,-47.883333,southern,80.6,51.0,75.0,9.17,80.6
BR,miracema,-21.416667,-42.183333000000005,southern,70.32,84.0,100.0,3.89,70.32
BW,sehithwa,-20.466666699999998,22.716666699999998,southern,100.49,11.0,8.0,7.78,100.49
BR,vargem grande do sul,-21.833333,-46.883333,southern,75.94,60.0,75.0,5.06,80.6
BR,ibitinga,-21.75,-48.816666999999995,southern,78.73,52.0,70.0,13.47,78.73
BR,porciuncula,-20.966667,-42.033333,southern,69.13,85.0,100.0,1.48,69.13
BW,tamasane,-22.3166667,27.366666700000003,southern,87.8,31.0,20.0,10.29,87.8
BR,matias barbosa,-21.869722,-43.318611,southern,65.21,86.0,100.0,4.81,65.21
NC,mont-dore,-22.283333300000002,166.58333330000002,southern,77.0,57.0,0.0,6.93,77.0
BR,barra do pirai,-22.466110999999998,-43.827778,southern,73.4,78.0,90.0,12.75,73.4
BR,cafelandia,-21.816667000000002,-49.583333,southern,79.68,53.0,50.0,15.5,79.68
NC,thio,-21.6166667,166.2166667,southern,77.0,57.0,0.0,6.93,77.0
BR,presidente prudente,-22.116667,-51.366667,southern,78.8,41.0,20.0,13.87,78.8
BR,boa esperanca do sul,-21.983333,-48.383333,southern,76.01,57.0,99.0,11.65,76.01
BR,barroso,-21.183332999999998,-43.966667,southern,62.6,77.0,90.0,8.05,62.6
BR,cataguases,-21.4,-42.683333000000005,southern,69.49,82.0,99.0,3.65,69.49
BR,mendes,-22.526111,-43.724722,southern,72.36,78.0,90.0,12.75,73.4
BR,ibate,-21.95,-48.0,southern,80.6,47.0,75.0,14.99,80.6
BR,ponte nova,-20.4,-42.9,southern,70.47,77.0,100.0,9.46,70.47
BR,porto ferreira,-21.85,-47.466667,southern,80.6,47.0,75.0,14.99,80.6
BR,barretos,-20.55,-48.55,southern,80.02,62.0,94.0,8.84,80.02
RE,sainte-marie,-20.8833333,55.55,southern,64.35,53.0,90.0,10.29,71.6
BR,caconde,-21.55,-46.633333,southern,71.6,60.0,75.0,3.71,71.6
BR,mariana,-20.383333,-43.416667,southern,69.93,71.0,98.0,5.95,69.93
BR,muqui,-20.95,-41.3,southern,63.54,100.0,100.0,1.92,63.54
BR,claudio,-20.433332999999998,-44.766667,southern,68.5,74.0,95.0,13.27,68.5
BR,casimiro de abreu,-22.483333,-42.2,southern,70.45,83.0,90.0,8.05,73.4
BR,andrelandia,-21.733333,-44.3,southern,61.72,83.0,100.0,8.59,61.72
BR,guararapes,-21.25,-50.633333,southern,84.16,48.0,48.0,10.92,84.16
MU,olivia,-20.2975,57.7255556,southern,68.92,68.0,40.0,10.29,69.8
BR,juiz de fora,-21.751667,-43.352778,southern,62.6,77.0,90.0,8.05,62.6
BR,pederneiras,-22.383333,-48.766667,southern,78.39,61.0,75.0,14.99,78.8
NA,otjiwarongo,-20.45,16.65,southern,79.57,40.0,94.0,9.06,79.57
BR,resende,-22.4679,-44.4575,southern,67.19,84.0,100.0,2.35,67.19
BR,terenos,-20.433332999999998,-54.833332999999996,southern,75.2,60.0,40.0,8.05,75.2
BR,rio pomba,-21.283333,-43.183333000000005,southern,62.6,77.0,90.0,8.05,62.6
MU,mahebourg,-20.4080556,57.7,southern,69.8,68.0,40.0,10.29,69.8
BR,monte azul paulista,-20.916667,-48.633333,southern,79.47,59.0,99.0,9.48,79.47
MU,souillac,-20.5166667,57.5166667,southern,69.8,68.0,40.0,10.29,69.8
BR,pirajui,-21.983333,-49.483333,southern,78.4,61.0,75.0,14.99,78.8
BW,mathathane,-22.2666667,28.75,southern,85.24,26.0,0.0,15.82,85.24
MG,beroroha,-21.6666667,45.1666667,southern,82.9,20.0,0.0,5.1,82.9
BR,pirassununga,-21.983333,-47.416667,southern,80.6,47.0,75.0,14.99,80.6
BR,igaracu do tiete,-22.516667,-48.566666999999995,southern,78.37,61.0,75.0,14.99,78.8
NC,poya,-21.35,165.15,southern,74.68,79.0,77.0,6.22,74.68
BR,pontal,-21.05,-48.083333,southern,80.6,51.0,75.0,9.17,80.6
BR,jeronimo monteiro,-20.783333,-41.4,southern,69.78,87.0,100.0,1.1,69.78
BR,mirante do paranapanema,-22.283333,-51.9,southern,78.8,41.0,20.0,13.87,78.8
NC,ponerihouen,-21.0833333,165.4,southern,74.32,82.0,92.0,9.26,74.32
BR,matao,-21.583333,-48.366667,southern,77.58,57.0,89.0,12.88,77.58
BR,uba,-21.116667,-42.933333000000005,southern,67.8,83.0,96.0,5.06,67.8
RE,sainte-suzanne,-20.9,55.6166667,southern,63.72,53.0,90.0,10.29,71.6
PF,moerai,-22.4333333,-151.33333330000002,southern,73.38,82.0,100.0,23.2,73.38
MU,quatre bornes,-20.2644444,57.471944400000005,southern,68.86,68.0,40.0,10.29,69.8
BR,santa rosa de viterbo,-21.466667,-47.35,southern,80.6,47.0,75.0,14.99,80.6
BR,espera feliz,-20.65,-41.916667,southern,62.2,95.0,100.0,3.09,62.2
BR,itaperuna,-21.2,-41.9,southern,72.43,80.0,100.0,3.11,72.43
BR,lavras,-21.233333,-45.0,southern,66.6,77.0,99.0,11.45,66.6
AU,roebourne,-20.772289,117.146477,southern,72.07,77.0,0.0,13.31,72.07
BR,cachoeiras de macacu,-22.466667,-42.65,southern,68.0,100.0,90.0,9.17,68.0
BR,sao simao,-21.5,-47.55,southern,80.6,51.0,75.0,9.17,80.6
BR,cordeiropolis,-22.483333,-47.466667,southern,78.76,47.0,75.0,14.99,80.6
BR,ipua,-20.45,-48.033333,southern,81.37,60.0,89.0,7.9,81.37
BR,valenca,-22.241944,-43.701389,southern,65.14,85.0,100.0,4.61,65.14
RE,saint-leu,-21.15,55.283333299999995,southern,66.52,56.0,90.0,5.82,71.6
BR,congonhas,-20.5,-43.866667,southern,75.2,60.0,75.0,6.93,75.2
RO,frumosu,47.616667,25.65,northern,35.56,96.0,99.0,4.61,46.0
DE,ingolstadt,48.766667,11.433333,northern,58.66,62.0,99.0,3.36,59.0
UA,berehove,48.20555,22.644176,northern,52.92,50.0,0.0,4.47,53.6
